City,Latitude,Longitude,Country,Date,Max Temperature (F),Humidity %,Cloudiness %,Wind (mph)
Iqaluit,63.75,-68.52,CA,1572372512,32.0,99,90,2.24
Thinadhoo,0.53,72.93,MV,1572372512,81.95,75,100,8.34
Ponta do Sol,-20.63,-46.0,BR,1572372512,79.81,59,89,11.12
Avarua,-21.21,-159.78,CK,1572372462,71.6,73,100,10.29
Busselton,-33.64,115.35,AU,1572372512,53.01,67,83,0.63
Karratha,-20.74,116.85,AU,1572372513,81.81,50,13,12.64
Peniche,39.36,-9.38,PT,1572372513,68.0,93,20,8.05
Castro,-42.48,-73.76,CL,1572372513,50.0,81,75,12.75
Shaunavon,49.65,-108.41,CA,1572372513,14.14,75,100,17.69
East London,-33.02,27.91,ZA,1572372513,62.6,59,20,23.04
Victoria,5.28,115.24,BN,1572372514,78.8,88,75,3.36
Shache,38.42,77.24,CN,1572372514,49.78,21,0,4.63
Clyde River,70.47,-68.59,CA,1572372514,30.2,100,75,11.41
Butaritari,3.07,172.79,KI,1572372515,84.74,69,93,6.73
Kaitangata,-46.28,169.85,NZ,1572372515,45.0,87,100,13.35
Katsuura,33.93,134.5,JP,1572372515,55.4,93,20,9.17
Pitea,65.32,21.48,SE,1572372515,23.0,85,2,4.7
Ispas,48.29,25.26,UA,1572372515,46.4,75,100,2.24
Barrow,-38.31,-60.23,AR,1572372516,72.01,44,0,4.25
Ushuaia,-54.81,-68.31,AR,1572372516,50.0,36,20,6.93
Rikitea,-23.12,-134.97,PF,1572372516,72.41,78,84,7.56
Kapaa,22.08,-159.32,US,1572372342,71.6,83,1,10.29
Kerman,30.29,57.06,IR,1572372516,62.6,25,20,6.93
Saint George,39.45,22.34,GR,1572372325,60.8,87,0,5.82
Novato,38.11,-122.57,US,1572372517,63.0,50,1,8.05
Cayenne,4.94,-52.33,GF,1572372517,91.4,55,20,11.41
Salalah,17.01,54.1,OM,1572372517,84.2,42,0,4.7
Badiraguato,25.36,-107.55,MX,1572372517,84.99,48,20,4.25
De Aar,-30.65,24.01,ZA,1572372517,54.14,13,0,8.81
Saint-Philippe,45.36,-73.48,CA,1572372518,63.0,59,40,19.46
Ribeira Grande,38.52,-28.7,PT,1572372518,68.0,82,75,13.87
Coahuayana,18.62,-100.35,MX,1572372518,82.49,71,86,2.42
Quatre Cocos,-20.21,57.76,MU,1572372518,73.4,78,75,7.27
Punta Arenas,-53.16,-70.91,CL,1572372518,50.0,45,0,16.11
Lebu,8.96,38.73,ET,1572372519,51.82,55,97,4.74
Bluff,-23.58,149.07,AU,1572372519,66.42,84,91,12.35
Kalmunai,7.42,81.82,LK,1572372519,79.95,83,100,13.8
Sitka,37.17,-99.65,US,1572372519,32.0,72,42,7.0
Tommot,58.97,126.27,RU,1572372520,11.91,89,13,3.78
Cabo San Lucas,22.89,-109.91,MX,1572372342,84.0,51,20,5.82
Avera,33.19,-82.53,US,1572372520,73.4,88,90,4.7
Arraial do Cabo,-22.97,-42.02,BR,1572372520,91.4,62,20,21.92
Ritchie,-29.03,24.6,ZA,1572372520,66.2,12,0,3.36
Simbahan,6.3,120.58,PH,1572372521,83.5,69,99,3.02
Seoul,37.57,126.98,KR,1572372521,48.2,100,1,1.12
Inhambane,-23.87,35.38,MZ,1572372521,73.4,83,75,9.17
Barranca,-10.75,-77.76,PE,1572372521,61.84,88,84,9.53
Albany,42.65,-73.75,US,1572372423,63.0,67,90,9.17
Vytegra,61.01,36.45,RU,1572372522,19.35,92,94,3.31
Menongue,-14.66,17.68,AO,1572372522,76.87,31,80,4.99
Laguna,16.17,-88.94,BZ,1572372522,86.0,79,40,6.93
Carutapera,-1.2,-46.02,BR,1572372522,81.61,77,67,20.33
Atuona,-9.8,-139.03,PF,1572372523,79.27,75,8,16.64
Chuy,-33.69,-53.46,UY,1572372523,68.58,82,100,10.04
Nome,30.04,-94.42,US,1572372523,77.0,73,75,16.11
Jijiga,9.35,42.8,ET,1572372585,63.16,46,85,7.9
Plouzane,48.38,-4.62,FR,1572372585,53.01,93,90,10.29
Bereda,43.27,-7.54,ES,1572372585,66.99,82,40,10.29
Melendugno,40.27,18.34,IT,1572372585,68.0,88,0,4.7
Svetlaya,46.54,138.33,RU,1572372585,46.38,73,18,19.77
Verkhnevilyuysk,63.45,120.31,RU,1572372586,14.52,93,59,9.6
Ivanava,52.14,25.53,BY,1572372586,41.86,62,43,7.67
Manakara,-22.14,48.01,MG,1572372586,74.43,94,83,3.4
San Patricio,-26.98,-56.83,PY,1572372586,103.05,29,0,10.47
Batemans Bay,-35.71,150.18,AU,1572372441,60.01,91,89,1.01
Hobart,-42.88,147.33,AU,1572372587,50.0,57,90,9.17
Cockburn Town,21.46,-71.14,TC,1572372587,81.84,78,15,17.78
Geraldton,49.72,-86.95,CA,1572372587,35.6,47,75,10.29
Basavana Bagevadi,16.57,75.97,IN,1572372587,73.35,87,29,8.14
Mataura,-46.19,168.86,NZ,1572372588,48.0,85,100,5.01
Luau,-10.7,22.23,CD,1572372588,66.9,94,55,5.99
Vaini,15.34,74.49,IN,1572372588,68.94,94,28,4.94
Tala,20.65,-103.7,MX,1572372588,77.0,57,40,2.39
Walvis Bay,-22.95,14.51,NA,1572372588,66.2,55,0,9.17
Pevek,69.7,170.27,RU,1572372589,-0.42,95,100,9.08
Cape Town,-33.93,18.42,ZA,1572372589,61.0,38,40,9.17
Mazagao,-0.12,-51.29,BR,1572372589,95.0,47,40,13.87
Yerbogachen,61.28,108.01,RU,1572372589,32.54,97,100,10.6
Shingu,33.72,135.99,JP,1572372589,62.08,78,23,6.31
Hermanus,-34.42,19.24,ZA,1572372590,55.99,69,50,1.99
Qaanaaq,77.48,-69.36,GL,1572372590,7.79,83,83,8.86
Duluth,46.77,-92.13,US,1572372590,35.01,47,1,13.87
Bredasdorp,-34.53,20.04,ZA,1572372590,59.0,47,0,14.99
Vardo,39.62,-77.74,US,1572372590,66.2,63,75,6.93
Port Augusta,-32.49,137.76,AU,1572372591,61.0,51,36,5.82
Taksimo,56.36,114.84,RU,1572372591,13.87,95,100,1.7
Georgetown,6.8,-58.16,GY,1572372591,89.6,66,75,9.17
Tiksi,71.64,128.87,RU,1572372592,5.54,95,99,1.36
Talnakh,69.49,88.39,RU,1572372592,-5.81,83,40,6.71
Jamestown,-33.21,138.6,AU,1572372592,59.56,22,54,5.99
Liberal,37.04,-100.92,US,1572372592,32.0,63,40,6.93
Baruun-Urt,46.68,113.28,MN,1572372592,33.94,71,7,6.64
Hobyo,5.35,48.53,SO,1572372593,81.81,72,12,10.83
Torbay,47.66,-52.73,CA,1572372593,44.01,87,90,25.28
Chapais,49.78,-74.86,CA,1572372445,48.2,87,90,13.87
Kaithal,29.8,76.4,IN,1572372593,73.69,43,100,1.7
Nipawin,53.36,-104.02,CA,1572372594,19.4,73,90,21.92
Cherskiy,68.75,161.3,RU,1572372594,-2.19,82,10,7.92
Bom Jesus,-9.08,-44.36,BR,1572372594,97.14,20,83,7.31
Yellowknife,62.45,-114.38,CA,1572372594,24.8,85,90,20.8
Hofu,34.05,131.57,JP,1572372595,62.6,72,3,5.82
Severo-Kurilsk,50.68,156.12,RU,1572372595,33.3,93,48,4.23
Puerto Ayora,-0.74,-90.35,EC,1572372595,78.8,61,20,10.29
Faya,18.39,42.45,SA,1572372595,66.2,77,2,4.07
Sokolo,14.74,-6.12,ML,1572372595,91.54,12,0,10.65
Cururupu,-1.82,-44.87,BR,1572372596,90.82,41,40,7.2
Lewistown,40.39,-90.15,US,1572372596,39.2,69,75,6.93
Grinnell,41.74,-92.72,US,1572372596,39.2,74,1,5.82
Houston,29.76,-95.37,US,1572372596,75.0,83,90,3.36
Souillac,45.6,-0.6,FR,1572372596,60.8,87,90,5.82
Freetown,26.61,-78.36,BS,1572372658,86.0,70,40,10.29
Khatanga,71.98,102.47,RU,1572372658,2.84,84,100,9.93
Saskylakh,71.97,114.09,RU,1572372658,-5.64,98,53,8.43
Dikson,73.51,80.55,RU,1572372658,6.64,91,98,11.05
Richards Bay,-28.77,32.06,ZA,1572372658,66.78,58,98,7.99
Upernavik,72.79,-56.15,GL,1572372659,26.06,95,100,6.8
Yanzhou,35.55,116.82,CN,1572372659,52.86,26,0,7.47
Beterou,9.2,2.26,BJ,1572372659,75.36,88,62,3.42
Aksu,52.04,76.93,KZ,1572372659,44.6,87,100,4.47
Adrar,27.87,-0.29,DZ,1572372660,82.4,15,33,8.05
Klaksvik,62.23,-6.59,FO,1572372660,42.8,81,68,11.41
Husavik,50.56,-96.99,CA,1572372660,24.01,72,77,7.0
Port Alfred,-33.59,26.89,ZA,1572372611,62.01,63,0,11.01
Zelenoborskiy,66.84,32.36,RU,1572372660,23.0,85,30,8.84
Demidov,55.27,31.52,RU,1572372661,33.01,80,97,9.4
Poso,-1.4,120.75,ID,1572372661,66.07,87,62,3.06
Port Macquarie,-31.43,152.91,AU,1572372402,59.0,87,90,14.23
Hualmay,-11.1,-77.61,PE,1572372661,70.25,58,50,10.18
Luderitz,-26.65,15.16,NA,1572372661,64.4,55,22,18.34
Perelyub,51.87,50.37,RU,1572372662,38.44,70,82,7.4
Iwanai,42.97,140.51,JP,1572372662,48.7,82,45,13.47
Ancud,-41.87,-73.83,CL,1572372662,50.0,81,75,12.75
Zhangjiakou,40.77,114.88,CN,1572372662,37.63,45,23,3.76
Hilo,19.71,-155.08,US,1572372663,75.0,73,75,5.82
Henties Bay,-22.12,14.28,NA,1572372663,59.0,81,0,3.0
Kurchum,48.57,83.65,KZ,1572372663,45.68,62,0,4.9
Sharjah,25.36,55.39,AE,1572372663,89.6,38,9,5.82
Betamcherla,15.47,78.17,IN,1572372663,73.06,87,65,7.25
Changji,32.07,116.17,CN,1572372664,57.87,31,0,3.78
Thompson,55.74,-97.86,CA,1572372664,21.2,85,90,14.99
Shihezi,44.3,86.03,CN,1572372664,52.5,41,0,9.19
Airai,-8.93,125.41,TL,1572372664,63.23,60,12,2.95
Chicama,-7.84,-79.15,PE,1572372664,66.2,77,90,10.29
Fidenza,44.86,10.07,IT,1572372665,63.0,100,90,6.93
Dombarovskiy,50.76,59.54,RU,1572372665,49.05,69,43,7.36
Rincon,8.46,-82.28,PA,1572372665,86.0,70,40,11.41
Mahon,51.89,-8.4,IE,1572372665,50.0,81,75,20.8
Axim,4.87,-2.24,GH,1572372665,76.03,91,96,6.04
Kokemaki,61.26,22.36,FI,1572372666,30.2,92,54,5.82
Uige,-7.61,15.06,AO,1572372666,70.68,94,100,1.83
Bom Jardim,-7.8,-35.59,BR,1572372666,84.2,45,40,16.11
Shelburne,44.08,-80.2,CA,1572372666,59.0,77,90,5.82
Leticia,-4.21,-69.94,CO,1572372667,86.0,79,75,4.7
Murgab,37.5,61.97,TM,1572372667,64.4,68,75,3.74
New Norfolk,-42.78,147.06,AU,1572372667,50.0,57,90,9.17
Faanui,-16.48,-151.75,PF,1572372668,79.54,75,65,10.51
Yarada,17.65,83.27,IN,1572372668,80.6,83,40,2.24
Dhing,26.46,92.48,IN,1572372668,72.1,90,5,4.05
Rio Gallegos,-51.62,-69.22,AR,1572372423,50.0,39,40,8.05
Vajszlo,45.86,17.98,HU,1572372669,46.99,93,90,8.05
Praia da Vitoria,38.73,-27.07,PT,1572372669,69.8,77,40,23.24
Slave Lake,55.28,-114.77,CA,1572372669,15.8,72,1,8.05
Sloboda,48.46,24.82,UA,1572372670,42.8,75,75,4.47
Dalmatovo,56.26,62.94,RU,1572372731,28.9,71,37,4.41
Kambove,-10.88,26.6,CD,1572372731,70.36,69,93,5.61
Tuy Hoa,13.08,109.3,VN,1572372731,80.29,80,100,31.16
Leningradskiy,69.38,178.42,RU,1572372731,16.81,83,100,29.93
Tiznit,29.7,-9.73,MA,1572372732,69.73,45,0,6.58
Puerto Ayacucho,5.66,-67.63,CO,1572372732,90.5,55,7,4.88
Tuktoyaktuk,69.44,-133.03,CA,1572372732,33.8,86,75,13.87
Smithers,54.78,-127.17,CA,1572372733,26.6,92,20,0.72
Gemena,3.25,19.78,CD,1572372733,70.7,97,100,0.27
Ouadda,8.07,22.4,CF,1572372733,70.14,73,71,3.2
Namatanai,-3.66,152.44,PG,1572372733,81.5,78,95,8.3
Cernay,47.81,7.18,FR,1572372733,46.4,100,90,6.93
Kruisfontein,-34.0,24.73,ZA,1572372734,52.9,70,0,17.13
Beyneu,45.32,55.19,KZ,1572372734,61.92,32,99,10.98
Norman Wells,65.28,-126.83,CA,1572372734,26.6,79,90,2.1
La Tuque,47.44,-72.79,CA,1572372555,48.25,89,100,11.77
Garden City,43.62,-116.24,US,1572372735,33.01,73,75,11.41
Berlevag,70.86,29.09,NO,1572372735,33.8,64,75,20.8
Gigmoto,13.78,124.39,PH,1572372735,82.98,79,100,10.92
Nanakuli,21.39,-158.15,US,1572372735,82.0,88,40,4.7
Churapcha,62.0,132.43,RU,1572372736,8.64,96,54,4.16
Freising,48.4,11.74,DE,1572372736,46.4,87,100,3.36
Fortuna,40.6,-124.16,US,1572372736,53.01,81,1,3.36
Cidreira,-30.17,-50.22,BR,1572372736,72.72,83,80,12.5
Manzhouli,49.6,117.43,CN,1572372736,36.37,80,98,5.64
Longyearbyen,78.22,15.63,NO,1572372737,14.0,78,75,1.12
Meiganga,6.52,14.29,CM,1572372737,67.75,90,28,2.91
Port Elizabeth,39.31,-74.98,US,1572372737,66.0,77,90,4.21
Jacksonville Beach,30.29,-81.39,US,1572372552,90.0,83,90,5.82
Kodiak,39.95,-94.76,US,1572372738,34.0,78,90,5.82
Novaky,51.47,26.19,UA,1572372738,39.97,72,37,5.37
Kungurtug,50.6,97.53,RU,1572372738,29.16,68,61,5.53
Sorland,67.67,12.69,NO,1572372738,37.4,67,75,5.82
Grindavik,63.84,-22.43,IS,1572372738,42.8,87,75,14.99
Kavieng,-2.57,150.8,PG,1572372738,83.86,70,28,3.6
Namibe,-15.19,12.15,AO,1572372739,71.83,77,38,6.4
Dauriya,49.93,116.85,RU,1572372739,32.18,94,90,8.75
Lompoc,34.64,-120.46,US,1572372739,69.01,35,1,11.43
Auki,12.18,6.51,NG,1572372739,81.82,46,96,6.06
Lucea,18.44,-78.17,JM,1572372740,86.0,79,20,17.22
Nikolskoye,59.7,30.79,RU,1572372740,32.0,85,90,6.71
Dhidhdhoo,6.88,73.1,MV,1572372740,77.88,86,100,14.25
San Cristobal,14.68,-86.92,HN,1572372740,80.76,55,58,7.14
Borogontsy,62.67,131.17,RU,1572372740,10.83,96,75,5.28
Codrington,-28.95,153.24,AU,1572372741,59.0,93,73,2.24
Ajdabiya,30.75,20.22,LY,1572372741,72.64,42,87,12.3
Lata,30.78,78.62,IN,1572372741,27.41,75,80,1.57
Saltpond,5.2,-1.06,GH,1572372741,80.4,82,41,16.44
Sungaipenuh,-2.08,101.38,ID,1572372741,63.54,99,76,1.88
Ishigaki,24.34,124.16,JP,1572372742,76.84,82,96,24.96
Bristol,51.45,-2.6,GB,1572372518,50.0,81,98,16.11
Kiama,-34.67,150.86,AU,1572372742,64.4,68,100,11.41
Castres,43.6,2.24,FR,1572372742,66.2,72,79,4.7
Carnarvon,-30.97,22.13,ZA,1572372743,57.9,15,0,6.85
Colquechaca,-18.7,-66.0,BO,1572372743,68.52,15,0,9.17
Lavrentiya,65.58,-170.99,RU,1572372804,21.43,64,0,6.31
La Ronge,55.1,-105.3,CA,1572372804,19.4,67,75,18.34
Hithadhoo,-0.6,73.08,MV,1572372805,82.33,74,100,9.1
Comodoro Rivadavia,-45.87,-67.48,AR,1572372805,57.2,62,40,12.75
Teya,21.05,-89.07,MX,1572372805,91.99,59,75,9.17
Novosheshminsk,55.06,51.22,RU,1572372805,32.67,82,82,2.98
Lola,7.8,-8.53,GN,1572372805,73.36,92,51,4.0
Visnes,59.36,5.22,NO,1572372806,37.99,66,5,5.82
Soyo,-6.13,12.37,AO,1572372806,82.4,78,20,6.93
Neiafu,-18.65,-173.98,TO,1572372807,73.4,94,75,2.24
Olga,34.11,-118.17,US,1572372807,71.01,49,1,4.7
Terrasini,38.15,13.08,IT,1572372807,73.0,77,20,4.7
Kandi,11.13,2.93,BJ,1572372807,77.32,70,82,2.62
La Guardia,-17.89,-63.33,BO,1572372808,96.8,49,75,21.92
Popondetta,-8.77,148.24,PG,1572372808,65.77,94,100,1.48
Anan,33.91,134.64,JP,1572372808,64.99,87,20,10.29
Dicabisagan,17.08,122.42,PH,1572372808,77.77,86,97,5.7
Owando,-0.49,15.91,CG,1572372809,72.43,86,83,2.98
Viedma,-40.81,-62.99,AR,1572372809,71.01,30,17,8.01
Samarai,-10.62,150.67,PG,1572372809,74.71,92,100,8.3
Banda Aceh,5.56,95.32,ID,1572372809,73.15,89,100,2.98
Manadhoo,5.77,73.38,MV,1572372809,76.42,91,100,15.14
Bilibino,68.06,166.44,RU,1572372809,-9.89,96,0,2.89
Ulaanbaatar,47.92,106.92,MN,1572372630,24.8,68,19,2.24
Esperance,-33.86,121.89,AU,1572372810,55.4,76,100,12.75
Bambous Virieux,-20.34,57.76,MU,1572372810,71.6,78,20,7.23
Kampong Thum,12.71,104.89,KH,1572372811,76.26,85,84,3.94
Sao Gabriel da Cachoeira,-0.13,-67.09,BR,1572372811,91.4,59,40,3.36
Aswan,24.09,32.9,EG,1572372811,80.6,19,1,6.93
Zhangye,38.94,100.46,CN,1572372812,39.9,26,20,1.66
Sulphur,30.24,-93.38,US,1572372812,78.8,69,75,14.99
Atherton,-17.27,145.48,AU,1572372812,73.4,78,40,9.17
Bethel,60.79,-161.76,US,1572372812,39.2,93,90,4.7
Port Hardy,50.7,-127.42,CA,1572372812,41.0,86,40,4.7
Nabire,-3.36,135.5,ID,1572372813,72.99,97,100,1.1
Kahului,20.89,-156.47,US,1572372751,75.0,100,75,6.93
Barao de Melgaco,-16.19,-55.97,BR,1572372813,95.0,34,19,10.29
Ponta Delgada,37.73,-25.67,PT,1572372813,69.8,88,40,14.99
Coquimbo,-29.95,-71.34,CL,1572372813,68.0,40,1,16.11
Davila,18.47,120.58,PH,1572372814,78.8,94,20,2.24
Stephenville,48.55,-58.59,CA,1572372814,41.0,86,40,6.93
Half Moon Bay,37.46,-122.43,US,1572372814,87.8,62,1,3.36
Lagoa,37.14,-8.45,PT,1572372814,66.99,100,40,4.7
Jalu,29.03,21.55,LY,1572372814,74.68,24,0,9.8
Orsha,54.51,30.43,BY,1572372815,34.74,82,88,10.78
Ostrovnoy,68.05,39.51,RU,1572372815,22.8,87,98,12.03
Meulaboh,4.14,96.13,ID,1572372816,78.08,84,100,6.82
Kavaratti,10.57,72.64,IN,1572372816,82.09,80,77,13.82
Kumluca,36.37,30.29,TR,1572372816,64.18,64,0,5.93
Kosjeric,44.0,19.91,RS,1572372816,57.2,87,40,4.7
Svetlogorsk,53.14,59.15,RU,1572372877,35.6,59,40,6.71
Ferrol,43.48,-8.23,ES,1572372877,68.0,82,40,10.29
Foumban,5.73,10.9,CM,1572372878,68.59,90,68,2.04
Mayo,63.59,-135.9,CA,1572372878,28.4,100,90,2.24
Cumberland,41.97,-71.43,US,1572372878,57.99,87,90,4.38
Wanning,48.64,13.53,AT,1572372878,46.99,81,75,1.12
Taraz,42.89,71.39,KZ,1572372878,52.0,43,0,8.95
Turukhansk,65.8,87.96,RU,1572372879,-4.47,99,97,4.61
Lasa,34.92,32.53,CY,1572372879,68.0,77,40,4.7
Los Llanos de Aridane,28.66,-17.92,ES,1572372879,75.99,88,50,6.93
Saint-Joseph,43.56,6.97,FR,1572372879,66.2,88,20,3.36
Sao Filipe,14.9,-24.5,CV,1572372879,81.82,59,69,6.67
Plunge,55.91,21.84,LT,1572372880,39.2,86,75,9.17
Gaoual,11.75,-13.2,GN,1572372880,78.46,62,0,2.24
Ondjiva,-17.07,15.73,AO,1572372664,95.0,14,20,4.7
Tucumcari,35.17,-103.73,US,1572372880,39.2,86,90,9.17
Ayan,38.23,44.7,IR,1572372880,43.25,77,100,1.68
Aklavik,68.22,-135.01,CA,1572372881,48.2,49,75,9.17
Warmbad,50.67,13.08,DE,1572372881,41.0,86,34,2.24
Bolshoye Murashkino,55.78,44.78,RU,1572372881,31.5,69,46,8.97
Ilulissat,69.22,-51.1,GL,1572372881,21.2,53,20,3.36
Morondava,-20.3,44.28,MG,1572372881,77.04,88,9,1.61
Polohy,47.48,36.26,UA,1572372882,48.0,86,100,2.91
Qaqortoq,60.72,-46.03,GL,1572372882,35.6,80,20,8.21
Nanortalik,60.14,-45.24,GL,1572372882,38.8,82,38,8.88
Vao,59.1,26.19,EE,1572372882,29.48,81,39,6.15
Campoverde,-0.91,-78.62,EC,1572372882,64.4,58,75,10.29
Polewali,-4.03,119.8,ID,1572372883,72.86,90,50,0.83
Constitucion,23.99,-104.67,MX,1572372883,73.0,26,5,4.7
Lorengau,-2.02,147.27,PG,1572372883,83.08,71,73,3.22
Boden,65.83,21.69,SE,1572372883,23.0,79,12,2.24
Waterfoot,53.69,-2.25,GB,1572372883,46.99,75,40,6.93
Nortelandia,-14.45,-56.8,BR,1572372884,95.22,36,55,7.49
Kamogawa,35.13,140.08,JP,1572372884,57.99,100,20,3.36
Sarangani,5.4,125.46,PH,1572372884,83.21,72,73,9.44
Washougal,45.58,-122.35,US,1572372884,43.0,23,1,26.4
Susanville,40.42,-120.65,US,1572372884,39.99,32,1,8.05
Mar del Plata,-46.43,-67.52,AR,1572372885,58.01,48,48,3.78
Tocopilla,-22.09,-70.2,CL,1572372885,76.98,20,9,10.47
Dangriga,16.97,-88.23,BZ,1572372885,89.6,70,40,6.93
Conceicao do Araguaia,-8.26,-49.26,BR,1572372885,95.77,34,35,3.83
San Jose,14.25,-87.96,HN,1572372885,82.4,61,40,2.24
Chegdomyn,51.13,133.04,RU,1572372886,32.97,99,100,1.52
Praia,-20.25,-43.81,BR,1572372886,87.8,40,75,5.82
San Andres,13.32,122.68,PH,1572372886,76.26,93,98,5.79
Mount Gambier,-37.83,140.78,AU,1572372886,48.2,93,75,2.68
Hokitika,-42.72,170.96,NZ,1572372886,50.34,85,100,9.19
Ha Giang,22.83,104.99,VN,1572372887,55.29,78,0,3.2
Bria,6.54,21.99,CF,1572372887,71.6,71,34,2.04
Gamba,28.28,88.52,CN,1572372887,29.25,61,58,1.57
Beringovskiy,63.05,179.32,RU,1572372887,22.32,54,0,12.46
Grand Gaube,-20.01,57.66,MU,1572372887,71.6,78,20,7.16
Sobolevo,54.43,31.9,RU,1572372888,35.6,95,83,12.71
Sinnamary,5.38,-52.96,GF,1572372888,82.69,76,31,9.84
Amapa,15.09,-87.97,HN,1572372888,89.6,52,20,4.7
Ketchikan,55.34,-131.65,US,1572372888,39.2,93,90,6.93
Tuatapere,-46.13,167.69,NZ,1572372888,48.0,85,80,5.01
Moyale,3.52,39.05,ET,1572372889,73.51,79,100,4.9
Kaliua,-5.06,31.79,TZ,1572372889,71.78,73,60,3.65
Asekeyevo,53.57,52.8,RU,1572372889,33.62,74,28,4.52
Cordoba,-27.78,-67.24,AR,1572372886,90.91,24,8,10.45
Port Hedland,-20.31,118.58,AU,1572372950,77.0,88,0,4.7
Elko,40.83,-115.76,US,1572372951,24.8,41,75,16.11
Tasiilaq,65.61,-37.64,GL,1572372951,32.0,77,40,32.21
Ewa Beach,21.32,-158.01,US,1572372951,78.8,69,40,3.36
Birao,10.3,22.78,CF,1572372951,78.39,37,42,2.28
Bratislava,48.15,17.11,SK,1572372670,50.0,66,98,5.82
Shimoda,34.7,138.93,JP,1572372845,55.99,98,41,4.0
Necochea,-38.55,-58.74,AR,1572372952,64.0,72,0,7.0
Tecoanapa,16.99,-99.26,MX,1572372953,87.8,62,40,8.05
Hamilton,43.26,-79.87,CA,1572372953,66.0,76,90,12.75
Alofi,-19.06,-169.92,NU,1572372953,75.2,83,99,10.29
Barsovo,61.17,73.17,RU,1572372953,23.0,79,75,13.42
Mont-de-Marsan,43.89,-0.5,FR,1572372758,66.0,82,55,3.36
Tura,64.27,100.22,RU,1572372954,13.48,96,100,5.61
Katobu,-4.94,122.53,ID,1572372954,73.54,94,21,3.36
Alihe,50.57,123.73,CN,1572372954,26.64,73,100,2.62
Yumen,40.29,97.04,CN,1572372954,39.58,36,2,10.16
Crotone,39.09,17.12,IT,1572372955,66.2,88,0,8.05
Porbandar,21.64,69.61,IN,1572372955,82.51,78,100,4.76
Bathurst,-33.42,149.58,AU,1572372955,59.0,53,99,1.23
Bathsheba,13.22,-59.52,BB,1572372955,87.8,66,40,12.75
Sabaudia,41.3,13.03,IT,1572372955,64.99,93,100,4.7
Rassvet,49.11,45.47,RU,1572372956,52.41,62,99,3.94
Mandal,48.82,106.5,MN,1572372956,29.89,79,45,6.26
Kampene,-3.59,26.67,CD,1572372956,71.1,92,49,0.72
Sorong,-0.86,131.25,ID,1572372956,71.94,99,98,2.24
Cedar City,37.68,-113.06,US,1572372957,45.0,17,1,13.87
Englewood,39.65,-104.99,US,1572372957,18.0,78,90,13.87
Manthani,18.65,79.67,IN,1572372957,75.31,90,77,2.89
Margate,-43.03,147.26,AU,1572372958,50.0,57,90,9.17
Kutum,14.2,24.66,SD,1572372958,76.93,24,42,6.42
Touros,-5.2,-35.46,BR,1572372958,82.4,61,75,16.11
Narsaq,60.91,-46.05,GL,1572372958,35.6,80,20,2.3
Marzuq,14.4,46.47,YE,1572372958,71.82,36,50,6.02
Mwinilunga,-11.73,24.43,ZM,1572372959,68.99,77,76,4.27
Alice Springs,-23.7,133.88,AU,1572372959,59.0,16,0,5.82
Pueblo,38.25,-104.61,US,1572372791,28.4,92,90,12.75
Puerto Escondido,15.86,-97.07,MX,1572372959,84.2,74,40,9.17
Sambava,-14.27,50.17,MG,1572372960,68.59,92,7,1.57
Kwekwe,-18.93,29.81,ZW,1572372960,70.92,53,93,16.02
Yuncheng,35.03,111.0,CN,1572372684,55.42,34,44,3.2
Emporia,38.4,-96.18,US,1572372960,39.99,80,90,9.17
Atar,20.52,-13.05,MR,1572372961,91.89,18,7,16.49
Nemuro,43.32,145.57,JP,1572372961,56.43,87,100,24.29
Traverse City,44.76,-85.62,US,1572372731,44.01,75,90,5.82
Itarema,-2.92,-39.92,BR,1572372962,87.19,48,44,17.67
Mana,13.03,5.27,NG,1572372962,81.79,51,100,5.93
Keroka,-0.78,34.95,KE,1572372962,60.48,95,100,2.1
Kamina,-8.74,25.0,CD,1572372963,67.73,94,50,4.7
Togur,58.36,82.83,RU,1572373024,21.81,81,25,7.4
Udachnyy,66.42,112.4,RU,1572373024,6.8,92,90,11.18
Nokaneng,-19.66,22.19,BW,1572373024,83.57,14,66,5.97
Tiarei,-17.53,-149.33,PF,1572373024,82.4,65,75,6.93
Luganville,-15.51,167.18,VU,1572373024,67.1,91,98,2.55
Kununurra,-15.77,128.74,AU,1572373025,69.8,88,24,3.36
Mahibadhoo,3.78,72.97,MV,1572373025,81.1,76,100,14.61
Barra do Garcas,-15.89,-52.26,BR,1572373025,93.2,46,75,2.24
Dunyapur,29.8,71.74,PK,1572373025,75.2,57,75,6.06
Minnedosa,50.25,-99.84,CA,1572372802,21.2,73,90,20.8
Hambantota,6.12,81.12,LK,1572373026,77.38,89,100,8.61
Pervomayskiy,53.24,40.29,RU,1572373026,42.57,70,87,6.82
Flin Flon,54.77,-101.88,CA,1572373026,19.4,73,90,13.87
Port-Cartier,50.03,-66.88,CA,1572373027,43.0,100,90,6.93
Erenhot,43.65,111.97,CN,1572373027,42.19,53,0,8.01
Minot,48.23,-101.3,US,1572372984,23.0,57,90,21.92
Sioux Lookout,50.1,-91.92,CA,1572373027,28.4,63,75,12.75
Zhanjiang,21.2,110.4,CN,1572373027,75.02,56,38,14.56
New Glasgow,45.59,-62.65,CA,1572372949,54.0,73,0,3.0
Kenai,60.55,-151.26,US,1572373028,45.0,81,90,5.82
General Cepeda,25.38,-101.48,MX,1572373028,82.99,36,5,6.26
Agboville,5.93,-4.21,CI,1572373028,78.42,80,96,1.95
Orocue,4.79,-71.34,CO,1572373029,89.46,56,36,7.92
Parrsboro,45.41,-64.33,CA,1572373029,55.99,50,20,2.24
Tanete,-3.94,119.78,ID,1572373029,72.86,90,50,0.83
Dolzhanskaya,46.63,37.8,RU,1572373029,55.58,72,97,4.79
Dukat,40.25,19.57,AL,1572373030,64.0,71,0,4.52
Kilindoni,-7.91,39.67,TZ,1572373030,79.88,74,21,12.8
Yertsevo,60.8,40.09,RU,1572373030,19.53,95,16,2.01
Launceston,-41.43,147.14,AU,1572373030,48.2,87,50,16.11
Deputatskiy,69.3,139.9,RU,1572373030,-5.81,90,100,0.65
Saldanha,41.42,-6.55,PT,1572373031,61.54,71,35,5.06
Ternate,14.29,120.72,PH,1572373031,80.6,83,40,1.12
Bjelovar,45.9,16.84,HR,1572373031,46.4,87,90,10.29
Aldan,58.61,125.39,RU,1572373031,15.03,80,71,16.06
Aykhal,65.95,111.51,RU,1572373032,6.8,92,90,11.18
Taoudenni,22.68,-3.98,ML,1572373032,84.18,19,2,13.18
Mahebourg,-20.41,57.7,MU,1572373032,71.6,78,20,4.12
Samfya,-11.37,29.56,ZM,1572373032,80.78,28,91,4.23
Parati,-20.51,-54.63,BR,1572373032,95.0,39,75,14.99
Vila Velha,-3.71,-38.6,BR,1572373032,86.0,51,20,18.34
Riyadh,24.63,46.72,SA,1572372877,86.0,23,0,3.36
Guerrero Negro,27.97,-114.04,MX,1572373033,73.58,47,32,9.71
Marawi,8.0,124.29,PH,1572373033,73.99,93,100,5.01
Kudymkar,59.01,54.66,RU,1572373033,17.74,88,0,4.23
Deer Lake,49.18,-57.43,CA,1572373033,48.0,75,75,5.82
Beloha,-25.17,45.06,MG,1572373034,77.61,81,21,5.88
Flinders,-34.58,150.85,AU,1572373034,64.4,68,100,11.41
Hasaki,35.73,140.83,JP,1572373034,55.4,100,75,2.24
Moerai,-22.43,-151.33,PF,1572373034,72.27,81,100,20.4
Jatai,28.97,76.18,IN,1572373034,76.84,31,99,2.98
Waipawa,-39.94,176.59,NZ,1572373035,41.0,92,0,3.11
Torbat-e Jam,35.24,60.63,IR,1572373035,60.33,47,17,8.34
Kloulklubed,7.04,134.26,PW,1572373035,75.2,100,75,4.7
Yuanping,38.72,112.71,CN,1572373035,44.35,40,5,4.54
Buraydah,26.33,43.97,SA,1572373097,80.6,61,21,6.93
Aasiaat,68.71,-52.87,GL,1572373097,19.0,61,0,4.45
Santa catarina de Tepehuanes,25.34,-105.72,MX,1572373097,68.31,24,2,6.44
Pangnirtung,66.15,-65.72,CA,1572373097,28.4,79,75,5.82
Caravelas,-17.73,-39.27,BR,1572373097,83.3,59,85,14.07
Kaohsiung,22.62,120.31,TW,1572373098,75.2,73,75,3.36
Broome,52.47,1.45,GB,1572373098,48.99,81,20,4.7
Maragogi,-9.01,-35.22,BR,1572372968,78.66,67,14,12.82
Clarence Town,-32.59,151.78,AU,1572373098,60.01,93,59,1.86
Ler,63.2,10.3,NO,1572373098,41.0,86,90,16.11
Poronaysk,49.22,143.1,RU,1572373099,46.38,98,100,16.98
Yaan,7.38,8.57,NG,1572373099,78.85,76,39,0.4
Darnah,32.77,22.64,LY,1572373099,72.52,79,3,11.03
Westport,41.14,-73.36,US,1572372912,60.8,93,90,11.41
Prince Rupert,54.32,-130.32,CA,1572373100,35.6,100,90,3.36
Buin,-33.73,-70.74,CL,1572373100,75.0,20,95,3.36
Hamamatsu,34.71,137.73,JP,1572373100,59.0,87,0,5.99
Manta,45.1,24.1,RO,1572373100,54.43,63,81,1.5
Kurilsk,45.23,147.88,RU,1572373100,49.39,93,75,15.14
Burley,42.54,-113.79,US,1572373101,23.0,37,90,20.8
Byron Bay,-28.65,153.62,AU,1572373101,62.01,87,82,1.7
Caucaia,-3.73,-38.66,BR,1572372995,86.0,51,20,18.34
Ucluelet,48.94,-125.55,CA,1572372988,48.99,70,20,3.36
Sept-Iles,50.2,-66.38,CA,1572373101,43.0,100,90,6.93
Havre-Saint-Pierre,50.23,-63.6,CA,1572373102,44.6,81,90,2.24
Aosta,45.74,7.32,IT,1572373102,59.0,93,20,1.12
Abomey,7.18,1.99,BJ,1572373102,76.53,91,86,4.92
Miri,10.31,9.75,NG,1572373102,77.79,55,19,4.47
Binga,-17.62,27.34,ZW,1572373102,88.95,34,10,6.4
Palu,-0.9,119.87,ID,1572373103,66.15,97,20,2.06
Lakatoro,-16.11,167.42,VU,1572373103,75.22,74,88,19.04
Nizwa,22.93,57.53,OM,1572373103,75.65,35,2,8.39
Puerto Penasco,31.32,-113.53,MX,1572373051,70.0,56,0,7.85
Enid,36.4,-97.88,US,1572372907,37.4,64,90,12.75
Rio Claro,-22.41,-47.56,BR,1572372816,86.0,40,20,5.82
Robertsport,6.75,-11.37,LR,1572373104,81.28,80,69,12.8
Hunterville,-39.94,175.57,NZ,1572373104,51.01,82,0,1.99
Prainha,-1.8,-53.48,BR,1572373105,100.31,31,9,5.55
Manga,31.31,74.05,PK,1572373105,73.4,69,33,4.21
Berzence,46.21,17.15,HR,1572373105,44.6,93,90,3.36
Zyryanka,65.73,150.89,RU,1572373105,8.6,95,100,4.72
Qandala,11.47,49.87,SO,1572373105,79.23,49,46,2.55
Tautira,-17.73,-149.15,PF,1572373106,82.4,65,75,6.93
Coffeyville,37.04,-95.62,US,1572373106,39.99,86,90,12.75
Doha,25.29,51.53,QA,1572372964,87.8,66,0,2.24
San Carlos de Bariloche,-41.13,-71.31,AR,1572373106,42.8,87,75,26.4
Morant Bay,17.88,-76.41,JM,1572373106,89.6,59,20,19.46
Egvekinot,66.32,-179.17,RU,1572373107,8.73,67,0,7.02
Eganville,45.54,-77.1,CA,1572373107,64.0,63,1,12.75
Svay Rieng,11.08,105.8,KH,1572373107,77.31,78,82,7.87
Ixtapa,20.71,-105.21,MX,1572373107,84.99,66,20,9.17
Nantucket,41.28,-70.1,US,1572373101,59.0,82,90,8.05
Pangody,65.85,74.49,RU,1572373108,9.77,90,48,18.66
Seoni Malwa,22.45,77.47,IN,1572373108,73.15,87,40,2.17
Parana,-7.52,-72.89,BR,1572373108,87.8,70,75,4.7
Vila Franca do Campo,37.72,-25.43,PT,1572373108,69.8,88,40,14.99
Eirunepe,-6.66,-69.87,BR,1572373109,80.02,71,100,1.86
Okakarara,-20.59,17.46,NA,1572373170,78.69,12,75,5.3
Coihaique,-45.58,-72.07,CL,1572373170,53.6,57,40,10.29
Pontes e Lacerda,-15.23,-59.33,BR,1572373171,98.92,31,60,5.55
Haines Junction,60.75,-137.51,CA,1572373171,33.33,100,99,7.49
Kidal,18.44,1.41,ML,1572373171,83.35,9,0,8.77
Ahuimanu,21.44,-157.84,US,1572373171,78.8,88,40,4.7
Dingle,11.0,122.67,PH,1572373171,74.71,90,78,5.28
Lazarev,52.23,141.51,RU,1572373172,42.96,86,100,12.41
Juli,25.21,100.58,CN,1572373172,50.7,95,66,0.69
Lengshuitan,26.41,111.6,CN,1572373172,58.89,65,0,2.48
Dmitriyevka,43.08,41.0,GE,1572373172,58.57,89,3,3.62
Jacmel,18.24,-72.54,HT,1572373173,89.6,59,20,11.41
Saint-Pierre,48.95,4.24,FR,1572373173,48.0,81,99,9.17
Samagaltay,50.6,95.0,RU,1572373173,28.94,76,100,2.77
Huarmey,-10.07,-78.15,PE,1572373173,74.93,48,49,10.69
Klasterec nad Ohri,50.38,13.17,CZ,1572373174,42.01,80,20,5.82
Palma Soriano,20.21,-75.99,CU,1572373174,86.0,62,40,4.7
Marrakesh,31.63,-7.99,MA,1572373001,80.6,32,20,6.93
Mitu,36.2,46.09,IR,1572373174,46.47,86,60,4.36
Sao Joao da Barra,-21.64,-41.05,BR,1572373174,87.8,55,90,25.28
Tela,15.78,-87.45,HN,1572373175,89.6,84,20,6.93
Presidencia Roque Saenz Pena,-26.79,-60.44,AR,1572373175,107.44,22,0,9.35
Isiolo,0.35,37.58,KE,1572373175,74.75,64,88,10.07
Dunedin,-45.87,170.5,NZ,1572373071,48.99,77,100,11.99
Tual,-5.67,132.75,ID,1572373176,79.38,80,100,10.04
Bilma,18.69,12.92,NE,1572373176,87.53,13,96,8.5
Ustynivka,47.96,32.54,UA,1572373176,48.2,81,98,4.47
Luanda,-8.83,13.24,AO,1572373176,78.8,78,75,9.17
Ocotal,13.63,-86.48,NI,1572373177,79.97,63,57,7.09
Yulara,-25.24,130.99,AU,1572373177,57.2,15,0,3.36
Muisne,0.61,-80.02,EC,1572373177,82.4,78,75,9.17
Dickinson,46.88,-102.79,US,1572372965,21.2,53,90,28.86
Chaoyang,41.58,120.44,CN,1572373177,43.65,34,0,6.98
Trincomalee,8.58,81.23,LK,1572373178,72.86,98,100,0.96
College,64.86,-147.8,US,1572373178,36.0,92,40,2.35
Sur,22.57,59.53,OM,1572373178,80.28,68,50,20.4
Gandajika,-6.75,23.95,CD,1572373178,70.86,93,100,2.19
Isangel,-19.55,169.27,VU,1572373179,70.75,77,72,19.77
Puerto del Rosario,28.5,-13.86,ES,1572373179,77.0,69,12,5.82
Itoman,26.12,127.67,JP,1572373179,75.2,78,75,11.41
Ust-Maya,60.42,134.54,RU,1572373180,9.68,95,26,2.24
Katangli,51.71,143.23,RU,1572373180,41.81,87,100,11.68
Belaya Gora,68.54,146.19,RU,1572373180,-2.58,99,94,2.48
Saint-Georges,46.12,-70.67,CA,1572373180,52.0,78,78,3.0
Kamenka,48.03,28.7,MD,1572373181,43.0,80,100,7.0
Tilichiki,60.47,166.1,RU,1572373181,19.33,61,99,5.1
Denpasar,-8.65,115.22,ID,1572372998,78.8,83,20,2.24
Pisco,-13.71,-76.2,PE,1572373182,71.6,30,0,13.87
Mbanza-Ngungu,-5.25,14.87,CD,1572373182,72.72,91,90,3.2
Soria,41.76,-2.46,ES,1572373182,55.99,78,99,1.01
Sisimiut,66.94,-53.67,GL,1572373243,21.54,79,0,8.08
Ahipara,-35.17,173.16,NZ,1572373243,48.0,100,47,24.92
Palencia,42.01,-4.53,ES,1572373244,61.0,67,44,4.7
Diamantino,-14.4,-56.44,BR,1572373244,94.5,38,19,6.29
Kapit,2.02,112.94,MY,1572373244,71.4,98,100,0.85
Zunyi,27.73,106.92,CN,1572373244,52.21,79,0,3.38
Sale,-38.11,147.06,AU,1572373244,57.99,78,16,1.99
Pekan,3.49,103.39,MY,1572373245,75.2,94,75,5.61
Bordighera,43.79,7.66,IT,1572373245,66.2,77,75,5.82
Botshabelo,-29.23,26.73,ZA,1572373245,53.6,11,0,2.24
Sigli,5.38,95.96,ID,1572373245,80.55,76,100,5.39
Bacabal,-4.23,-44.78,BR,1572373246,100.15,30,47,1.14
Warrington,53.39,-2.59,GB,1572373246,46.99,81,40,13.87
Nalut,31.86,10.98,LY,1572373246,69.46,64,7,8.9
Nova Olimpia,-14.8,-57.29,BR,1572373246,96.31,36,42,7.92
Birchis,45.97,22.17,RO,1572373246,46.4,93,90,10.29
Dauphin,51.15,-100.04,CA,1572373247,23.0,79,75,19.46
Cabedelo,-6.97,-34.84,BR,1572373247,82.4,61,75,17.22
Usvyaty,55.75,30.75,RU,1572373145,32.18,79,82,7.94
Chokurdakh,70.62,147.9,RU,1572373247,8.33,88,100,4.07
Nuuk,64.17,-51.74,GL,1572373248,33.8,85,75,8.05
Yarmouth,43.84,-66.12,CA,1572373248,57.0,62,40,5.82
Tambo,-12.95,-74.02,PE,1572373248,77.0,23,75,3.36
Fairbanks,64.84,-147.72,US,1572373201,30.0,92,40,2.3
Palmas,-10.18,-48.33,BR,1572373249,82.4,74,40,2.24
North Platte,41.12,-100.77,US,1572373074,24.8,68,90,13.87
Rajo Khanani,24.98,68.85,PK,1572373249,83.88,53,99,5.39
Srednekolymsk,67.46,153.71,RU,1572373249,12.51,96,100,1.05
Stepnogorsk,52.35,71.88,KZ,1572373249,48.7,78,100,1.83
Reconquista,-29.14,-59.64,AR,1572373250,94.8,49,0,8.86
Mount Isa,-20.73,139.49,AU,1572373250,62.6,77,25,16.02
Baghdad,33.3,44.38,IQ,1572373250,75.2,57,75,5.82
Port Lincoln,-34.72,135.86,AU,1572373250,65.32,47,17,12.24
Ilhabela,-23.78,-45.36,BR,1572373250,78.51,81,85,5.88
Arlit,18.74,7.39,NE,1572373251,92.93,13,0,8.39
Copiapo,-27.37,-70.33,CL,1572373251,68.0,49,0,12.75
Camabatela,-8.19,15.37,AO,1572373251,66.87,96,98,6.33
Pine Bluff,34.23,-92.0,US,1572373252,62.6,72,90,3.36
Leh,34.16,77.58,IN,1572373252,31.55,38,32,4.25
Ingham,-18.65,146.16,AU,1572373252,66.33,95,100,1.88
Namie,37.52,140.86,JP,1572373252,57.99,98,0,5.32
Jiuquan,39.73,98.49,CN,1572373253,36.21,30,10,3.33
Springbok,-29.67,17.88,ZA,1572373253,54.27,31,0,2.71
Camacupa,-12.02,17.48,AO,1572373253,66.9,76,96,4.45
Karla,59.37,24.93,EE,1572373253,35.01,64,75,4.7
Ararat,39.85,44.7,AM,1572373253,53.6,54,20,2.24
Xichang,27.88,102.25,CN,1572373254,42.33,95,89,2.21
Kargasok,59.06,80.87,RU,1572373254,22.32,79,2,11.88
Straumen,63.87,11.3,NO,1572373254,39.99,86,90,16.11
Bucak,37.46,30.59,TR,1572373254,68.0,47,0,6.93
Cap Malheureux,-19.98,57.61,MU,1572373255,71.6,78,20,7.16
Paamiut,61.99,-49.67,GL,1572373255,36.93,88,99,2.26
Goderich,43.74,-81.71,CA,1572373316,60.01,76,57,11.01
Charters Towers,-20.07,146.27,AU,1572373316,66.27,88,100,8.39
Maniitsoq,65.42,-52.9,GL,1572373317,31.62,55,0,10.96
Iglesias,42.3,-3.99,ES,1572373317,60.01,81,20,5.82
Galliate,45.48,8.7,IT,1572373317,60.8,100,75,2.24
Lodja,-3.52,23.6,CD,1572373318,70.54,95,48,2.8
Nargana,9.44,-78.59,PA,1572373318,82.58,76,100,7.05
Marabba,12.35,32.18,SD,1572373318,90.07,23,83,8.34
Vega de Alatorre,20.03,-96.65,MX,1572373318,78.03,80,0,5.86
Aleksandrov Gay,50.14,48.57,RU,1572373318,50.79,64,100,6.87
Saucillo,28.03,-105.29,MX,1572373319,75.22,23,57,9.35
Mayumba,-3.44,10.65,GA,1572373319,78.89,84,76,6.69
Scottsbluff,41.87,-103.67,US,1572373319,17.01,78,90,6.93
Kryry,50.17,13.43,CZ,1572373319,44.6,80,20,5.82
Coro,11.41,-69.67,VE,1572373320,86.07,64,32,18.59
Rocha,-34.48,-54.34,UY,1572373320,65.82,80,84,13.15
Sal Rei,16.18,-22.92,CV,1572373320,87.8,45,93,17.22
Tourlaville,49.64,-1.57,FR,1572373320,48.99,81,100,18.34
Pochutla,15.74,-96.47,MX,1572373321,90.0,59,75,10.29
Hohhot,40.81,111.65,CN,1572373321,28.4,74,0,2.24
Myingyan,21.46,95.39,MM,1572373321,78.8,94,40,5.82
Gat,14.69,-16.54,SN,1572373321,96.8,16,50,4.7
Biograd na Moru,43.94,15.45,HR,1572373321,63.0,93,20,4.7
Partizansk,43.13,133.13,RU,1572373322,34.77,71,0,3.22
Tay Ninh,11.3,106.1,VN,1572373322,76.82,75,99,4.88
Oistins,13.07,-59.53,BB,1572373322,87.8,66,40,12.75
Amasya,40.65,35.83,TR,1572373323,57.2,71,40,8.05
Wanaka,-44.7,169.14,NZ,1572373323,36.68,95,98,7.47
Mildura,-34.18,142.16,AU,1572373323,59.0,26,82,6.93
Ushtobe,45.25,77.98,KZ,1572373323,49.3,46,0,3.56
Santa Maria,-16.02,-48.01,BR,1572373324,87.8,33,75,11.41
Lac du Bonnet,50.25,-96.06,CA,1572373324,32.0,100,100,11.52
Namur,50.47,4.87,BE,1572373324,46.0,87,66,8.05
Samarate,45.63,8.78,IT,1572373325,60.8,100,75,2.24
San Quintin,17.54,120.52,PH,1572373325,74.3,94,100,3.51
Kashary,49.04,41.01,RU,1572373325,46.58,74,100,4.23
Arrifes,37.77,-25.7,PT,1572373326,69.8,88,40,14.99
Jackson,43.48,-110.76,US,1572373239,19.4,57,1,3.36
Cooma,-36.24,149.13,AU,1572373326,39.2,69,83,4.7
Honiara,-9.43,159.96,SB,1572373326,75.2,100,20,3.36
Foix,42.97,1.61,FR,1572373327,66.99,72,97,4.7
Ramsar,36.92,50.64,IR,1572373327,62.6,93,33,4.65
Santiago del Estero,-27.8,-64.26,AR,1572373223,74.32,68,99,7.85
Poum,41.28,20.71,MK,1572373327,48.2,66,0,1.12
Sao Pedro do Piaui,-5.93,-42.72,BR,1572373328,101.8,18,30,8.08
Port Blair,11.67,92.75,IN,1572373328,83.95,77,10,3.83
Tazovskiy,67.47,78.7,RU,1572373153,15.06,91,99,18.45
Celestun,20.87,-90.4,MX,1572373328,84.07,69,0,2.37
Tessalit,20.2,1.01,ML,1572373328,78.39,13,0,10.33
Road Town,18.42,-64.62,VG,1572373329,87.8,58,20,6.93
Ganta,7.31,-8.54,LR,1572373329,73.27,91,59,1.25
Polonnaruwa,7.94,81.0,LK,1572373329,73.87,96,100,1.03
Oktyabrskoye,56.73,85.44,RU,1572373390,33.01,72,40,11.18
Keti Bandar,24.14,67.45,PK,1572373390,83.52,63,70,6.38
Salinas,36.67,-121.66,US,1572373391,62.01,32,1,4.7
Guiratinga,-16.35,-53.76,BR,1572373391,98.44,29,5,3.89
Zhicheng,35.04,112.59,CN,1572373391,58.08,36,0,2.98
Asuncion,-25.3,-57.63,PY,1572373391,105.8,24,40,17.22
Breves,-1.68,-50.48,BR,1572373391,95.95,36,95,2.98
Gobabis,-22.45,18.97,NA,1572373392,70.72,13,0,13.85
Waterloo,8.34,-13.07,SL,1572373221,84.2,70,75,8.05
Zhezkazgan,47.8,67.71,KZ,1572373392,51.21,29,100,4.59
Hazorasp,41.32,61.08,UZ,1572373392,51.8,53,74,2.24
Ofunato,39.11,141.75,JP,1572373392,60.01,83,3,11.63
Shanghai,31.23,121.49,CN,1572373386,64.0,76,0,2.24
Anadyr,64.73,177.51,RU,1572373393,1.4,77,0,11.18
Ciudad Bolivar,8.12,-63.55,VE,1572373393,93.13,45,66,4.12
Altay,47.83,88.13,CN,1572373393,28.13,76,7,5.66
Batagay,67.65,134.64,RU,1572373394,-1.09,94,100,0.54
Ryotsu,38.08,138.43,JP,1572373394,57.2,93,75,2.24
Skibbereen,51.55,-9.27,IE,1572373394,48.2,81,75,20.8
Victor Harbor,-35.55,138.62,AU,1572373394,71.01,58,76,4.7
Basco,40.33,-91.2,US,1572373395,39.2,74,90,6.93
Semey,50.41,80.25,KZ,1572373395,51.13,57,95,6.4
Rafai,4.95,23.92,CF,1572373395,72.77,79,74,0.87
Nurota,40.56,65.69,UZ,1572373395,59.0,54,40,9.17
Kibala,9.11,18.35,TD,1572373396,82.4,74,20,1.77
Am Timan,11.04,20.28,TD,1572373396,77.56,44,50,0.96
Huambo,-12.78,15.73,AO,1572373396,70.79,61,72,5.93
Russell,38.9,-98.86,US,1572373397,34.0,86,90,6.93
Canatlan,24.52,-104.78,MX,1572373397,73.0,26,5,4.7
Chateaudun,48.08,1.33,FR,1572373397,48.99,87,94,11.41
Peebles,55.65,-3.19,GB,1572373397,44.01,48,1,1.01
Concepcion,9.56,-73.66,CO,1572373397,89.26,69,56,2.08
Great Yarmouth,52.61,1.73,GB,1572373398,52.0,81,20,4.7
Vestmannaeyjar,63.44,-20.27,IS,1572373398,44.6,65,75,11.41
Pindiga,9.98,10.93,NG,1572373398,78.12,58,0,6.2
Bonavista,48.65,-53.11,CA,1572373398,42.01,88,100,11.99
Antsohihy,-14.88,47.99,MG,1572373398,79.81,80,38,4.03
Valparaiso,41.47,-87.06,US,1572373399,45.0,81,90,8.05
Pocone,-16.26,-56.62,BR,1572373399,99.79,32,21,4.03
Sault Sainte Marie,46.49,-84.36,CA,1572373400,42.8,80,75,5.82
Hirara,24.8,125.28,JP,1572373400,76.24,83,69,24.63
Chitral,35.85,71.79,PK,1572373400,37.8,78,100,2.46
Iranshahr,27.21,60.69,IR,1572373400,78.8,26,34,4.7
Chico,39.73,-121.84,US,1572373205,64.0,17,20,23.04
Fuerte Olimpo,-21.04,-57.87,BR,1572373401,108.39,21,0,11.95
Christchurch,-43.53,172.64,NZ,1572373401,46.99,93,16,3.36
Chapleau,47.85,-83.4,CA,1572373401,33.8,86,90,5.82
Tanhacu,-14.02,-41.25,BR,1572373401,90.84,34,83,9.98
Vermilion,53.35,-110.85,CA,1572373401,15.8,72,20,16.11
Guozhen,29.3,113.14,CN,1572373402,60.98,49,0,1.43
Khabary,53.63,79.53,RU,1572373402,40.77,77,85,3.85
Salina Cruz,16.18,-95.2,MX,1572373463,81.39,75,0,7.83
Esil,51.96,66.41,KZ,1572373463,47.93,72,100,5.53
Mmathubudukwane,-24.61,26.43,BW,1572373464,73.4,8,3,2.24
Muroto,33.37,134.14,JP,1572373464,54.43,85,2,4.79
Jeremie,18.65,-74.12,HT,1572373464,78.33,79,57,3.78
Diffa,13.32,12.61,NE,1572373464,89.98,12,0,6.55
Bahar,34.91,48.44,IR,1572373464,51.8,62,20,10.27
Nkowakowa,-23.89,30.29,ZA,1572373465,64.4,12,73,8.05
Danane,7.26,-8.15,CI,1572373465,72.07,93,62,1.92
Narrabri,-30.33,149.78,AU,1572373465,73.4,33,100,17.22
Fort Nelson,58.81,-122.69,CA,1572373465,17.6,78,75,4.7
Cairns,-16.92,145.77,AU,1572373465,73.4,78,40,9.17
Dabakala,8.36,-4.43,CI,1572373466,79.23,71,10,2.73
Las Vegas,36.17,-115.15,US,1572373466,59.0,10,1,4.7
Mbamba,9.98,13.1,NG,1572373466,78.35,63,43,1.45
Metsavan,41.2,44.23,GE,1572373466,50.0,53,100,5.82
Zalantun,48.0,122.72,CN,1572373467,29.57,81,83,3.09
Bergama,39.12,27.18,TR,1572373467,62.6,82,70,5.82
Nishihara,35.74,139.53,JP,1572373467,57.99,100,1,1.05
Petropavlovsk-Kamchatskiy,53.05,158.65,RU,1572373467,30.2,92,0,4.47
Alto Lucero,20.95,-97.44,MX,1572373467,84.2,66,75,5.82
Hudson Bay,52.86,-102.4,CA,1572373468,20.26,74,100,11.97
Paita,-5.09,-81.11,PE,1572373468,62.6,100,27,13.87
Corn Island,12.17,-83.04,NI,1572373468,82.98,76,68,15.35
Wajima,37.4,136.9,JP,1572373468,62.69,71,14,12.64
Barentu,15.11,37.59,ER,1572373468,83.32,37,65,12.86
Illapel,-31.63,-71.17,CL,1572373469,65.97,20,49,10.92
Atasu,48.68,71.64,KZ,1572373469,48.85,49,83,4.76
Madimba,4.42,9.93,CM,1572373469,82.4,83,75,4.7
Lincent,50.71,5.03,BE,1572373469,46.99,81,20,6.93
Bauchi,10.31,9.85,NG,1572373469,77.79,55,19,4.47
Hernani,43.27,-1.98,ES,1572373470,64.99,88,18,5.19
Saint-Michel-des-Saints,46.68,-73.92,CA,1572373470,48.06,91,100,9.13
Moussoro,13.64,16.49,TD,1572373470,92.34,14,0,7.16
Herveo,5.08,-75.18,CO,1572373470,77.0,64,75,9.17
Gonbad-e Qabus,37.25,55.17,IR,1572373470,59.0,72,0,1.97
Kayerkan,69.35,87.76,RU,1572373471,-4.01,83,40,6.71
Filadelfia,-22.35,-60.04,PY,1572373471,111.27,17,0,20.74
Beawar,26.1,74.31,IN,1572373471,77.04,61,84,3.33
Batsfjord,70.63,29.72,NO,1572373471,33.8,92,75,12.75
Naze,5.43,7.07,NG,1572373471,78.8,94,75,3.36
Baijiantan,45.63,85.18,CN,1572373472,52.16,41,0,10.33
Seguela,7.96,-6.67,CI,1572373472,78.3,83,4,4.32
Rio Grande,-32.03,-52.1,BR,1572373428,69.8,88,100,6.93
Dongsheng,29.72,112.52,CN,1572373472,61.39,53,0,2.35
Kanker,20.27,81.49,IN,1572373473,71.71,88,30,3.11
Hay River,60.82,-115.79,CA,1572373473,17.6,67,75,16.11
Newport,41.49,-71.31,US,1572373204,59.0,82,90,9.17
Alta Floresta,-9.87,-56.08,BR,1572373473,84.2,70,75,5.82
Myre,62.25,17.37,SE,1572373474,30.2,74,47,6.93
Port Shepstone,-30.74,30.45,ZA,1572373474,60.21,55,39,0.47
Nizhnevartovsk,60.93,76.58,RU,1572373474,21.2,79,90,11.18
Palana,59.08,159.95,RU,1572373475,28.0,96,96,5.39
Mukhen,48.19,136.14,RU,1572373475,38.77,95,100,11.41
Oktyabrskiy,55.61,37.97,RU,1572373536,41.0,80,75,8.95
Leeuwarden,53.2,5.79,NL,1572373536,48.2,86,0,5.82
Gold Coast,-28.0,153.41,AU,1572373537,64.0,87,68,1.12
Catio,11.28,-15.25,GW,1572373537,84.83,56,11,4.41
Daoukro,7.06,-3.97,CI,1572373537,76.53,86,84,1.48
Mabaruma,8.2,-59.78,GY,1572373538,82.81,88,45,4.9
Northam,-31.65,116.67,AU,1572373538,53.6,93,40,4.7
Obo,5.39,26.49,CF,1572373538,73.47,67,54,2.95
Pervomayskoye,57.07,86.23,RU,1572373538,25.79,67,80,12.15
Taltal,-25.41,-70.49,CL,1572373538,63.77,59,0,9.46
Kerchevskiy,59.95,56.29,RU,1572373539,17.85,91,39,5.21
Pimentel,-3.7,-45.5,BR,1572373539,98.67,32,71,2.98
Jumla,29.28,82.18,NP,1572373539,43.41,70,98,3.18
Ossora,59.24,163.07,RU,1572373539,32.22,85,100,3.58
Gainesville,29.65,-82.33,US,1572373356,89.01,66,1,9.17
Boa Vista,2.82,-60.67,BR,1572373540,95.0,36,75,6.93
Morehead,38.18,-83.43,US,1572373540,64.4,77,90,3.36
Zell am See,47.32,12.8,AT,1572373540,43.0,93,75,3.36
Harper,30.3,-99.24,US,1572373540,57.99,93,90,4.7
Kozlovice,49.59,18.26,CZ,1572373401,46.0,70,20,4.7
Waingapu,-9.65,120.26,ID,1572373541,80.98,79,32,14.52
Puerto Colombia,10.99,-74.96,CO,1572373541,86.0,74,75,8.05
Batesville,35.77,-91.64,US,1572373541,59.0,82,90,6.22
Diplo,24.47,69.59,PK,1572373542,83.03,62,56,11.9
Hargeysa,9.56,44.06,SO,1572373542,68.54,42,77,9.8
Chirongui,-12.93,45.15,YT,1572373542,78.8,83,50,4.7
Erzin,36.95,36.2,TR,1572373542,70.0,88,40,5.82
Piopio,-42.79,-73.57,CL,1572373543,51.8,81,75,8.05
Bud,62.91,6.91,NO,1572373543,42.8,86,75,6.93
Nelson Bay,-32.72,152.14,AU,1572373543,60.01,87,59,4.7
Yeppoon,-23.13,150.74,AU,1572373543,71.6,73,100,10.29
Japura,-0.42,102.29,ID,1572373543,73.11,94,16,1.43
Neuquen,-38.95,-68.06,AR,1572373338,68.0,19,75,14.99
Huixtla,15.14,-92.46,MX,1572373544,93.2,52,20,4.7
Gamboma,-1.87,15.88,CG,1572373544,74.75,86,100,2.66
Prieska,-29.67,22.74,ZA,1572373544,54.39,11,0,9.42
Mehriz,31.58,54.44,IR,1572373545,66.2,39,15,4.7
Roznava,48.66,20.54,SK,1572373545,46.0,71,20,2.24
Atlantic Beach,30.33,-81.4,US,1572373545,89.6,70,75,8.05
Fort Saint James,54.43,-124.25,CA,1572373545,27.12,43,83,3.8
Komsomolskiy,67.55,63.78,RU,1572373549,19.18,92,100,19.62
Bedong,5.73,100.51,MY,1572373549,78.8,94,75,2.24
Verkhoyansk,67.55,133.39,RU,1572373549,-2.62,92,100,0.36
Sayyan,15.17,44.32,YE,1572373549,62.01,28,61,6.71
Swellendam,-34.02,20.44,ZA,1572373549,53.6,50,13,6.93
Vagur,61.47,-6.81,FO,1572373550,44.74,72,97,16.33
Varia,38.6,21.58,GR,1572373550,62.6,88,0,1.77
Shieli,44.18,66.74,KZ,1572373550,54.07,32,87,6.22
Alexandria,43.97,25.33,RO,1572373480,50.0,92,24,6.89
Gazalkent,41.57,69.78,UZ,1572373551,55.4,43,18,4.7
Victoria,5.28,115.24,BN,1572373351,78.8,88,75,12.55
Suntar,62.16,117.65,RU,1572373551,14.72,95,21,6.08
Yuzhne,48.22,33.85,UA,1572373551,48.2,81,100,4.47
Pinos Puente,37.25,-3.75,ES,1572373612,68.0,63,40,2.24
Elliot,-31.33,27.85,ZA,1572373613,42.48,85,0,3.47
Cervo,-22.19,-46.24,BR,1572373613,73.4,73,75,3.65
Amudat,1.95,34.95,UG,1572373613,74.97,56,89,15.9
Portland,43.66,-70.25,US,1572373613,53.01,81,90,8.05
Quarai,-30.39,-56.45,BR,1572373614,80.87,83,99,9.95
Smidovich,48.6,133.81,RU,1572373614,39.7,89,100,13.56
Lujiang,31.26,117.28,CN,1572373614,51.8,66,0,4.47
Koslan,63.46,48.9,RU,1572373615,24.51,84,99,8.99
Jackville,5.21,-4.42,CI,1572373615,80.6,83,40,9.17
Ambilobe,-13.19,49.05,MG,1572373615,74.79,76,0,6.08
Scarborough,54.28,-0.41,GB,1572373615,48.99,75,0,4.7
Mitsamiouli,-11.38,43.28,KM,1572373616,80.6,65,20,13.87
Dodoma,-6.18,35.75,TZ,1572373616,75.79,49,1,11.54
Doaba,33.42,70.74,PK,1572373616,64.36,47,68,3.94
Konevo,41.67,25.61,BG,1572373617,60.01,86,43,4.27
Mantua,45.16,10.79,IT,1572373617,60.8,93,75,1.12
Babanka,48.71,30.45,UA,1572373617,47.01,56,99,6.89
Pacific Grove,36.62,-121.92,US,1572373617,63.0,38,1,4.7
Zhigansk,66.77,123.37,RU,1572373618,10.31,97,100,10.38
Rawson,-43.3,-65.11,AR,1572373619,61.61,40,0,19.51
Palmer,-34.85,139.16,AU,1572373619,71.01,58,17,4.7
Teguise,29.06,-13.56,ES,1572373620,75.2,83,0,4.7
Grand-Lahou,5.24,-5.0,CI,1572373620,78.31,84,99,11.14
Sulangan,11.14,123.72,PH,1572373620,80.71,76,100,2.82
Along,28.17,94.8,IN,1572373620,61.21,92,2,3.69
Parrita,9.52,-84.33,CR,1572373621,78.8,64,75,10.29
Vila Praia de Ancora,41.81,-8.85,PT,1572373621,66.99,100,90,5.82
Autazes,-3.58,-59.13,BR,1572373621,98.89,33,46,3.38
The Valley,18.22,-63.06,AI,1572373622,87.8,58,20,10.29
Sinjai,-5.12,120.25,ID,1572373622,81.73,74,20,4.16
Canchungo,12.07,-16.03,GW,1572373622,93.2,66,13,2.24
Fandriana,-20.24,47.38,MG,1572373623,63.54,80,37,1.25
Hanting,30.92,118.55,CN,1572373623,54.54,44,0,3.49
Sironko,1.23,34.25,UG,1572373623,52.02,93,93,3.49
Muzaffarpur,26.12,85.39,IN,1572373623,71.6,94,40,4.56
Vostok,46.45,135.83,RU,1572373624,32.63,97,100,8.86
Abilene,32.45,-99.73,US,1572373624,41.0,63,90,11.41
Gladstone,-23.84,151.26,AU,1572373624,69.8,68,40,9.17
Muros,42.77,-9.06,ES,1572373625,64.99,100,90,3.36
Ust-Tsilma,65.44,52.15,RU,1572373625,20.03,95,91,5.19
Soverato,38.69,16.55,IT,1572373625,68.0,82,20,4.7
Lahij,13.06,44.88,YE,1572373625,81.77,48,99,3.42
Ust-Nera,64.57,143.24,RU,1572373626,12.06,96,100,1.92
Padang,-0.92,100.36,ID,1572373626,68.05,98,55,0.83
Micco,27.85,-80.5,US,1572373626,89.01,66,75,11.41
Panorama,-21.35,-51.86,BR,1572373626,95.97,33,19,3.69
Umm Kaddadah,13.6,26.69,SD,1572373626,85.32,18,55,8.66
Sueyoshi,31.65,131.02,JP,1572373627,55.0,100,1,4.0
Bundu,-4.1,19.66,CD,1572373627,70.61,98,96,2.42
Winslow,51.94,-0.88,GB,1572373627,50.0,81,20,6.93
Limon,39.26,-103.69,US,1572373628,19.99,85,90,16.11
Ibra,22.69,58.55,OM,1572373628,79.9,51,45,18.75
Kailua,21.39,-157.74,US,1572373628,78.8,88,40,4.7
Sao Joao do Paraiso,-15.31,-42.01,BR,1572373628,88.14,27,10,6.78
Panuco,22.88,-102.54,MX,1572373629,68.0,49,5,14.99
Mehamn,71.03,27.85,NO,1572373629,33.8,80,90,23.04
Baykit,61.68,96.39,RU,1572373629,25.21,90,100,15.39
Tadine,-21.55,167.88,NC,1572373690,66.13,78,7,12.44
Kharitonovo,61.4,47.5,RU,1572373690,23.77,88,21,3.69
Matane,48.83,-67.52,CA,1572373691,53.6,71,75,11.41
Mulege,26.88,-111.98,MX,1572373692,75.25,50,15,4.65
Saint-Ambroise,48.56,-71.32,CA,1572373692,57.2,81,75,10.29
Terney,45.05,136.61,RU,1572373692,35.42,86,39,6.71
Zhaoyuan,45.52,125.08,CN,1572373693,35.98,44,4,8.23
Poway,32.96,-117.04,US,1572373693,70.0,45,1,4.7
Buala,-8.15,159.59,SB,1572373693,78.82,80,100,2.55
Champerico,16.38,-93.6,MX,1572373693,82.4,61,40,9.17
Vallenar,-28.58,-70.76,CL,1572373694,76.3,22,4,12.21
Provideniya,64.42,-173.23,RU,1572373694,15.71,70,14,2.64
Kodinsk,58.6,99.18,RU,1572373695,30.15,77,86,23.58
Nyrob,60.74,56.73,RU,1572373695,17.83,90,43,5.59
Butembo,0.12,29.29,CD,1572373695,62.29,95,100,3.87
Dengzhou,32.69,112.08,CN,1572373695,60.19,56,15,2.06
Broken Hill,-31.97,141.45,AU,1572373696,71.6,13,100,6.93
Ust-Ishim,57.69,71.17,RU,1572373696,26.2,77,0,4.34
Kysyl-Syr,63.9,122.77,RU,1572373696,9.25,94,100,10.25
Sistranda,63.73,8.83,NO,1572373696,44.01,86,40,12.75
Shenzhen,22.54,114.05,CN,1572373436,73.4,49,97,8.95
Kang,-23.67,22.79,BW,1572373697,68.54,7,21,8.23
Umm Lajj,25.02,37.27,SA,1572373697,75.36,56,0,7.74
Plainview,34.18,-101.71,US,1572373697,35.6,80,90,6.93
Oudtshoorn,-33.59,22.2,ZA,1572373698,57.2,47,20,10.29
Galesong,-5.32,119.37,ID,1572373698,77.0,88,20,1.12
Huruta,8.15,39.35,ET,1572373698,44.22,68,90,1.92
Krasnorechenskiy,44.63,135.35,RU,1572373698,30.47,84,62,8.79
Bandar-e Lengeh,26.56,54.88,IR,1572373699,82.4,48,20,4.7
Tongliao,43.61,122.27,CN,1572373699,42.57,53,0,16.4
Kushiro,43.11,144.15,JP,1572373700,50.43,93,43,4.94
Zheleznodorozhnyy,55.75,38.0,RU,1572373633,41.0,80,75,8.95
Pagsangahan,11.13,124.56,PH,1572373701,76.77,88,86,4.18
Kieta,-6.22,155.63,PG,1572373702,80.58,74,97,3.65
Freeport,26.54,-78.7,BS,1572373702,86.0,70,40,10.29
Snezhnogorsk,69.19,33.23,RU,1572373702,24.8,92,75,6.71
Amalapuram,16.58,82.0,IN,1572373702,82.4,83,20,4.7
Cerritos,33.86,-118.05,US,1572373703,71.6,46,20,5.82
Cartagena,37.63,-1.0,ES,1572373704,72.0,82,0,8.05
Dunda,30.62,78.32,IN,1572373704,54.03,75,100,4.25
Huaihua,27.56,109.96,CN,1572373704,55.87,79,0,0.85
Aventura,25.96,-80.14,US,1572373457,91.0,66,40,13.87
Shenjiamen,29.96,122.3,CN,1572373705,66.42,54,0,8.88
Kirakira,-10.46,161.92,SB,1572373705,76.37,87,100,8.5
Tieli,46.98,128.05,CN,1572373706,29.03,84,0,3.58
Santa Isabel do Rio Negro,-0.41,-65.02,BR,1572373706,91.53,53,29,1.72
Flagstaff,35.2,-111.65,US,1572373706,59.0,16,1,20.8
Merrill,42.03,-121.6,US,1572373540,35.01,27,1,14.99
Novo mesto,45.8,15.17,SI,1572373707,46.4,93,100,4.7
Luan,46.36,6.98,CH,1572373708,55.4,87,75,6.93
Ignalina,55.34,26.16,LT,1572373709,34.23,91,52,5.59
Pascagoula,30.37,-88.56,US,1572373709,68.0,94,75,13.87
Innisfail,-17.52,146.03,AU,1572373709,70.97,86,100,5.95
Saint Pete Beach,27.73,-82.74,US,1572373771,91.0,62,90,3.36
Sann,26.04,68.14,PK,1572373771,77.0,73,40,4.7
Constantine,36.36,6.61,DZ,1572373771,59.0,77,20,3.36
Saint-Leu,-21.15,55.28,RE,1572373771,75.2,78,27,2.24
Gravdal,59.79,5.78,NO,1572373772,37.99,62,42,5.82
Kushalgarh,23.2,74.45,IN,1572373772,74.61,78,74,5.12
Lake Wales,27.9,-81.59,US,1572373772,91.99,66,75,9.17
Kitimat,54.02,-128.69,CA,1572373773,37.99,59,75,1.63
Varhaug,58.61,5.65,NO,1572373773,39.0,86,0,2.24
Ngunguru,-35.62,174.5,NZ,1572373773,48.0,84,4,1.99
Hovd,63.83,10.7,NO,1572373773,44.01,86,90,16.11
Tallahassee,30.44,-84.28,US,1572373580,78.01,88,75,4.7
Kaduqli,11.01,29.72,SD,1572373774,80.33,37,95,3.27
Ife,7.48,4.55,NG,1572373774,73.27,95,72,4.09
Balabac,7.99,117.06,PH,1572373774,80.06,79,100,8.39
North Bend,43.41,-124.22,US,1572373774,52.0,37,1,12.75
Miyako,33.63,130.94,JP,1572373774,62.01,77,12,5.82
Astorga,-23.24,-51.66,BR,1572373775,93.2,36,20,5.82
Sola,-3.17,33.8,TZ,1572373775,68.43,74,100,8.75
Sayat,38.78,63.88,TM,1572373775,66.2,45,53,6.93
Alcudia,39.85,3.12,ES,1572373776,69.8,88,100,3.36
Dodge City,37.75,-100.02,US,1572373776,32.0,51,90,9.17
Wainwright,52.84,-110.86,CA,1572373776,16.92,77,0,9.17
Manokwari,-0.87,134.08,ID,1572373776,72.7,82,92,5.21
Bellavista,21.56,-104.88,MX,1572373777,78.8,61,20,3.91
Labuhan,-2.54,115.51,ID,1572373777,74.17,81,22,2.04
Ghanzi,-21.7,21.65,BW,1572373777,76.21,13,27,8.34
Kolyvan,55.31,82.74,RU,1572373777,32.0,80,52,6.71
Inirida,3.87,-67.92,CO,1572373778,86.31,74,86,1.45
Chipinge,-20.19,32.62,ZW,1572373778,73.92,72,73,7.65
Gibsons,49.4,-123.51,CA,1572373532,48.0,31,20,11.41
Balclutha,-46.24,169.74,NZ,1572373778,45.0,87,100,3.0
Manaus,-3.13,-59.98,BR,1572373776,89.6,55,40,2.24
Marystown,47.17,-55.16,CA,1572373779,48.0,2,9,5.01
West Wendover,40.74,-114.07,US,1572373779,28.4,50,75,12.75
Cianjur,-6.82,107.14,ID,1572373779,66.6,97,98,1.7
Khudat,41.63,48.68,AZ,1572373779,50.88,75,71,1.34
Daan,17.0,43.43,YE,1572373780,62.65,24,13,9.33
Porosozero,62.72,32.71,RU,1572373780,24.76,91,79,4.7
Grand-Santi,4.27,-54.38,GF,1572373780,94.01,40,46,2.26
Vikravandi,12.04,79.54,IN,1572373780,75.4,91,73,6.2
Nueve de Julio,-31.67,-68.39,AR,1572373781,84.02,18,0,11.68
Dongfeng,42.67,125.53,CN,1572373781,33.76,51,0,7.56
Crixas,-14.55,-49.97,BR,1572373781,94.78,31,78,3.04
Ziro,27.54,93.82,IN,1572373781,58.17,71,19,3.4
Fremont,37.55,-121.99,US,1572373782,87.8,38,1,5.82
Qasigiannguit,68.82,-51.19,GL,1572373782,21.2,53,20,3.36
Ust-Tarka,55.56,75.71,RU,1572373782,29.71,79,45,0.69
Ndjole,-0.18,10.76,GA,1572373783,76.19,83,74,2.62
Ko Samui,9.54,99.94,TH,1572373745,83.71,70,100,4.54
Antsirabe,-19.87,47.03,MG,1572373783,66.47,67,66,3.83
Guarda,40.54,-7.27,PT,1572373783,62.01,88,65,1.3
Urgut,39.41,67.25,UZ,1572373784,57.2,54,34,2.24
Castel San Giovanni,45.06,9.43,IT,1572373845,60.8,100,87,2.24
Arkhangelsk,64.54,40.54,RU,1572373846,23.0,92,75,6.71
Yenagoa,4.92,6.26,NG,1572373846,76.5,90,69,4.54
Saint Anthony,43.97,-111.68,US,1572373846,21.0,40,1,21.92
Drayton Valley,53.22,-114.98,CA,1572373846,18.68,50,0,6.2
Tucurui,-3.77,-49.67,BR,1572373846,93.69,42,73,1.3
Phangnga,8.45,98.53,TH,1572373847,75.2,88,20,2.17
Verkhnyaya Inta,65.99,60.32,RU,1572373847,18.46,91,46,21.0
Amboasary,-25.04,46.38,MG,1572373847,77.0,94,40,1.61
Kon Tum,14.36,108.0,VN,1572373847,65.53,89,97,3.44
Havelock,34.88,-76.9,US,1572373848,80.6,61,75,10.29
Lerwick,60.15,-1.15,GB,1572373848,42.8,80,40,9.01
Kanbe,16.71,96.0,MM,1572373848,78.8,94,75,3.36
Thunder Bay,48.41,-89.26,CA,1572373848,41.0,41,40,9.17
Yurginskoye,56.82,67.39,RU,1572373849,27.72,77,10,2.71
Nouakchott,18.08,-15.98,MR,1572373849,98.6,12,48,16.11
Veshenskaya,49.63,41.73,RU,1572373849,45.57,66,95,3.76
Vanimo,-2.67,141.3,PG,1572373849,83.32,70,99,2.68
Belmonte,40.36,-7.35,PT,1572373849,64.99,88,65,1.3
Leiyang,26.42,112.85,CN,1572373850,56.61,70,0,1.14
Bowen,-20.01,148.25,AU,1572373850,70.0,94,90,8.05
Tara,33.0,130.15,JP,1572373850,64.0,82,3,3.0
Thanh Hoa,10.21,106.33,VN,1572373850,78.8,94,20,3.36
Saint-Denis,48.94,2.36,FR,1572373840,52.0,76,100,9.17
Tartagal,-22.52,-63.8,AR,1572373851,104.0,45,40,11.41
Bubaque,11.28,-15.83,GW,1572373852,83.3,74,0,9.44
Springdale,36.19,-94.13,US,1572373852,44.6,100,90,11.41
Lake City,38.03,-107.32,US,1572373852,36.0,63,90,17.22
Locri,38.24,16.26,IT,1572373852,70.0,72,5,4.7
Arklow,52.79,-6.14,IE,1572373852,48.99,75,75,10.29
Yeroham,30.99,34.93,IL,1572373673,61.0,82,0,13.06
Tretten,61.31,10.3,NO,1572373853,28.99,82,84,3.78
Pangkalanbuun,-2.68,111.62,ID,1572373853,73.62,98,95,1.34
Kelamangalam,12.61,77.86,IN,1572373854,69.8,94,40,3.36
Tanout,14.97,8.88,NE,1572373854,89.74,23,80,7.4
Uchiza,-8.46,-76.46,PE,1572373854,83.77,54,30,2.04
Tirnavos,39.74,22.29,GR,1572373855,60.8,87,0,5.82
Quelimane,-17.88,36.89,MZ,1572373855,84.2,66,0,17.22
Santa Cruz,-6.22,-36.02,BR,1572373855,88.29,34,15,14.41
Bechyne,49.3,14.47,CZ,1572373856,46.0,99,100,6.85
Itapora,-22.08,-54.79,BR,1572373856,103.96,19,10,10.85
Carhuaz,-9.28,-77.65,PE,1572373856,55.56,41,39,2.68
Maldonado,-34.91,-54.96,UY,1572373856,62.6,88,90,10.29
Hervey Bay,-25.3,152.85,AU,1572373857,66.0,82,96,6.93
Iquique,-20.22,-70.14,CL,1572373857,66.2,68,75,16.11
Kokoda,-8.88,147.74,PG,1572373857,59.77,90,99,1.41
Marovoay,-16.11,46.64,MG,1572373858,82.4,74,20,10.29
Vazhiny,60.96,34.04,RU,1572373858,24.69,96,91,2.75
Big Bend,-26.79,31.94,SZ,1572373859,59.0,93,97,7.87
Wenzhou,28.02,120.66,CN,1572373859,64.0,99,0,3.33
Mogok,22.92,96.51,MM,1572373920,66.34,88,29,2.35
Te Anau,-45.41,167.72,NZ,1572373921,45.48,84,88,10.22
Farmington,36.73,-108.21,US,1572373921,44.01,35,90,11.41
Sompeta,18.93,84.6,IN,1572373922,73.08,90,3,1.25
Nizhniy Tsasuchey,50.52,115.13,RU,1572373922,31.98,84,42,9.84
Mayor Pablo Lagerenza,-19.93,-60.77,PY,1572373922,108.43,20,0,17.58
Moanda,-5.93,12.38,CD,1572373922,82.4,78,20,6.93
Ulladulla,-35.36,150.48,AU,1572373923,61.0,72,83,6.93
Narasannapeta,18.42,84.04,IN,1572373923,75.38,87,14,2.53
Soligalich,59.08,42.29,RU,1572373923,26.67,73,93,5.01
Abalak,15.46,6.28,NE,1572373923,92.5,21,86,5.84
Garissa,-0.46,39.64,KE,1572373924,85.95,56,98,17.6
Shetpe,44.14,52.16,KZ,1572373924,55.58,80,43,5.93
Nioro,13.79,-15.05,GM,1572373924,92.66,17,2,0.78
Gao,16.28,-0.04,ML,1572373924,91.38,9,0,12.24
Kuytun,54.34,101.51,RU,1572373925,38.17,80,73,13.94
Quballat,36.54,9.66,TN,1572373925,68.0,82,40,4.7
Besikduzu,41.05,39.23,TR,1572373925,62.6,88,75,3.18
Zwedru,6.07,-8.13,LR,1572373929,75.54,94,89,3.74
Sibolga,1.74,98.78,ID,1572373929,71.87,98,100,1.14
Santa Cecilia,9.85,-84.31,CR,1572373929,78.8,65,35,12.75
Pryazha,61.69,33.62,RU,1572373929,26.6,86,96,2.93
Clovis,36.83,-119.7,US,1572373930,66.0,41,1,3.36
Gizo,31.8,34.94,IL,1572373930,72.0,73,20,3.36
Tromso,69.65,18.96,NO,1572373722,30.2,86,75,1.12
Samsun,41.29,36.33,TR,1572373931,59.0,93,75,2.86
Xinzhou,38.41,112.73,CN,1572373931,44.35,40,5,4.54
Saryozek,44.36,77.98,KZ,1572373663,45.75,48,0,3.13
Sohag,26.55,31.7,EG,1572373932,77.0,29,73,9.17
Eyl,7.98,49.82,SO,1572373932,80.02,70,30,7.05
Aksarka,66.56,67.8,RU,1572373932,15.51,84,63,21.7
Bayonet Point,28.33,-82.68,US,1572373933,91.0,70,75,7.74
Srisailam,16.07,78.87,IN,1572373933,71.15,98,100,3.62
Viljandi,58.37,25.59,EE,1572373933,30.2,80,46,10.29
Clonakilty,51.62,-8.87,IE,1572373934,51.01,81,75,20.8
Arroio Grande,-32.24,-53.09,BR,1572373934,72.41,89,100,8.23
Bandarbeyla,9.49,50.81,SO,1572373934,79.93,61,81,7.78
Mindif,10.4,14.44,CM,1572373935,86.0,66,20,3.36
Talaya,55.79,84.89,RU,1572373935,32.0,76,40,11.18
Kattivakkam,13.22,80.32,IN,1572373935,84.0,94,90,11.41
Rodrigues Alves,-7.74,-72.65,BR,1572373936,87.8,70,75,4.7
Fukue,35.03,136.69,JP,1572373937,57.2,87,20,4.7
Murygino,58.74,49.46,RU,1572373937,24.75,72,0,3.04
High Rock,26.63,-78.28,BS,1572373937,86.0,70,40,10.29
Evensk,61.92,159.24,RU,1572373938,22.59,89,100,2.8
Natchez,31.56,-91.4,US,1572373938,75.2,64,40,10.29
Ginda,30.69,78.49,IN,1572373938,54.03,75,100,4.25
Dasoguz,41.84,59.97,TM,1572373938,53.6,46,77,6.93
Zapolyarnyy,69.43,30.82,RU,1572373939,24.8,79,100,21.92
Guamuchil,25.47,-108.1,MX,1572373939,86.0,45,0,4.0
Simao Dias,-4.45,-69.97,BR,1572373939,86.0,74,75,5.82
Bafoulabe,13.81,-10.83,ML,1572373939,93.83,13,0,6.26
Atamanovka,51.92,113.65,RU,1572373940,28.4,92,49,2.24
Pingliang,35.54,106.68,CN,1572373940,40.59,31,29,5.68
Calbuco,-41.77,-73.13,CL,1572373941,51.8,81,75,8.05
Nyurba,63.29,118.35,RU,1572374002,13.44,95,89,8.39
Vilhena,-12.74,-60.15,BR,1572374002,89.6,52,40,9.17
Vanavara,60.35,102.28,RU,1572374002,34.38,97,100,14.38
Madang,35.32,102.79,CN,1572374002,36.82,36,31,1.1
Businga,3.34,20.89,CD,1572374003,71.49,98,95,2.01
Kuusamo,65.96,29.19,FI,1572373924,21.2,92,90,8.05
Klyuchi,52.25,79.17,RU,1572374003,51.62,65,100,5.1
Shankargarh,25.19,81.61,IN,1572374003,75.4,48,98,3.58
Olinda,-37.84,145.39,AU,1572374004,62.6,72,80,13.87
Zhanaozen,43.35,52.85,KZ,1572374004,55.4,55,56,11.36
Abu Zabad,12.35,29.25,SD,1572374004,82.47,26,81,9.37
Oussouye,12.49,-16.54,SN,1572374004,87.8,70,86,6.93
Myitkyina,25.38,97.4,MM,1572374004,68.94,86,10,2.57
Boras,57.72,12.94,SE,1572373871,35.6,74,0,4.7
Dwarka,28.58,77.04,IN,1572374005,81.0,69,40,4.25
Conakry,9.52,-13.7,GN,1572374005,87.8,70,20,4.7
Esparta,15.74,-87.18,HN,1572374005,87.8,84,20,6.93
San Jeronimo,-13.65,-73.37,PE,1572374006,37.4,100,44,16.11
Holme,56.11,10.17,DK,1572374006,37.99,77,0,1.12
Boone,36.22,-81.67,US,1572373986,73.99,63,40,2.57
Ionia,42.99,-85.07,US,1572374006,46.99,70,90,5.82
Varkaus,62.32,27.87,FI,1572374007,28.4,74,90,10.29
Yongan,39.7,113.69,CN,1572374007,41.79,38,3,7.63
Garowe,8.41,48.48,SO,1572374007,77.9,63,4,21.36
Livingstone,-17.85,25.86,ZW,1572374007,90.84,17,33,7.81
Tabuk,17.41,121.44,PH,1572374008,72.93,94,72,1.81
Hailar,49.2,119.7,CN,1572374008,28.04,87,98,6.67
Ampanihy,-24.69,44.75,MG,1572374008,77.11,76,10,7.96
Toritama,-8.01,-36.06,BR,1572374008,86.05,33,8,14.29
Cleburne,32.35,-97.39,US,1572374008,48.2,100,90,11.41
Maningrida,-12.05,134.23,AU,1572374009,74.97,75,4,4.92
Barreiras,-12.14,-45.0,BR,1572374009,94.44,23,100,5.26
Toronto,43.65,-79.39,CA,1572374004,66.2,82,75,11.41
Sidhi,24.41,81.88,IN,1572374009,70.68,59,71,1.83
Hornepayne,49.22,-84.78,CA,1572374010,37.53,52,61,6.85
Macau,-5.11,-36.64,BR,1572374010,80.92,69,0,31.03
Aberdeen,46.98,-123.82,US,1572373810,45.0,38,1,18.34
Marsaxlokk,35.84,14.54,MT,1572374010,70.0,82,20,5.82
Kollegal,12.16,77.11,IN,1572374011,66.81,94,98,3.2
Virginia Beach,36.85,-75.98,US,1572373731,72.0,77,75,10.29
Batticaloa,7.71,81.69,LK,1572374011,73.33,95,99,3.0
Grimshaw,56.19,-117.61,CA,1572374011,19.99,78,75,9.17
Lichuan,30.3,108.94,CN,1572374011,48.18,72,49,2.59
Sylvan Lake,52.31,-114.09,CA,1572374012,12.2,66,5,3.36
Kudahuvadhoo,2.67,72.89,MV,1572374012,81.84,74,100,9.4
Marsabit,2.34,37.99,KE,1572374012,79.77,60,78,16.8
Kedrovyy,56.17,91.82,RU,1572374012,35.6,80,40,26.84
Sumbe,-11.2,13.84,AO,1572374012,74.52,82,85,7.92
Nauta,-4.51,-73.58,PE,1572374013,93.7,46,64,2.71
Cache Creek,50.81,-121.33,CA,1572374013,33.8,49,1,9.17
Veraval,49.65,0.71,FR,1572374013,48.99,87,100,11.41
Khargone,21.82,75.61,IN,1572374013,75.97,80,88,5.84
Buenos Aires,-34.61,-58.44,AR,1572373963,75.99,72,20,17.22
Villanueva de la Serena,38.97,-5.8,ES,1572374014,68.0,62,8,1.99
Swan River,52.11,-101.27,CA,1572374014,20.64,78,100,12.06
Hami,42.84,93.51,CN,1572374014,45.14,34,0,4.76
Nago,45.88,10.89,IT,1572374014,60.8,100,75,2.24
Rio Tuba,8.51,117.43,PH,1572374015,80.94,76,83,4.23
Mahenge,-8.68,36.72,TZ,1572374076,80.06,42,0,6.29
Mackay,53.65,-115.58,CA,1572374076,14.0,72,40,4.7
Karaton,-6.34,106.1,ID,1572374077,80.6,74,40,4.7
Oliver,49.18,-119.55,CA,1572373805,33.8,37,40,11.41
Saint-Augustin,45.63,-73.98,CA,1572374077,64.0,63,20,6.93
Lalmohan,22.34,90.74,BD,1572374078,72.45,82,79,6.35
Mastic Beach,40.77,-72.85,US,1572374078,60.8,87,90,6.93
Kantunilkin,21.1,-87.49,MX,1572374078,87.8,70,75,12.75
La Orilla,18.0,-102.23,MX,1572374078,86.99,62,2,1.57
Khorixas,-20.37,14.96,NA,1572374079,76.59,24,36,15.99
Mahajanga,-15.72,46.32,MG,1572374079,82.4,74,20,10.29
Prince George,53.92,-122.75,CA,1572373922,27.0,62,90,3.36
Rorvik,64.86,11.24,NO,1572374079,39.2,93,75,9.17
Usogorsk,63.43,48.71,RU,1572374080,23.16,90,97,8.05
Trapani,38.02,12.54,IT,1572373911,73.0,77,20,4.7
Agadez,16.97,7.99,NE,1572374080,91.4,31,91,4.7
Evanston,42.04,-87.69,US,1572373945,42.01,72,90,4.7
Santa Cruz del Sur,20.71,-78.0,CU,1572374080,84.52,74,0,15.41
Kovacica,45.11,20.62,RS,1572373982,48.2,100,75,9.17
Ovsyanka,53.58,126.91,RU,1572374081,25.84,82,61,1.79
Hurricane,37.18,-113.29,US,1572374081,52.0,13,1,3.36
Xai-Xai,-25.04,33.64,MZ,1572374081,71.44,67,86,12.28
Grenada,33.77,-89.81,US,1572374082,66.2,72,40,6.93
Lazaro Cardenas,28.39,-105.62,MX,1572374082,71.6,25,20,3.36
Kyshtovka,56.56,76.62,RU,1572374082,26.85,75,53,4.81
Ligayan,4.65,119.47,PH,1572374082,84.38,70,77,7.72
Voh,-20.95,164.69,NC,1572374082,68.4,76,67,18.59
Novikovo,51.15,37.89,RU,1572374083,42.8,72,72,6.89
Gushikawa,26.35,127.87,JP,1572374083,75.2,83,40,8.05
Bodinayakkanur,10.01,77.35,IN,1572374083,72.84,89,100,2.01
Bulgan,48.81,103.53,MN,1572374084,33.19,63,84,6.13
Spirovo,57.42,34.99,RU,1572374084,32.54,94,100,10.27
Folldal,62.14,10.0,NO,1572374084,17.83,81,78,3.27
Plover,44.46,-89.54,US,1572374085,39.2,55,1,6.93
Luxor,25.7,32.65,EG,1572374085,77.0,38,0,6.93
Manicore,-5.81,-61.3,BR,1572374085,95.45,38,26,4.29
Atambua,-9.11,124.89,ID,1572374086,71.55,77,14,3.58
Klichka,50.44,118.0,RU,1572374086,34.36,98,100,6.04
Jiazi,19.61,110.49,CN,1572374086,75.2,73,75,6.71
Moroni,35.09,24.92,GR,1572374086,64.4,88,40,4.7
Presidente Olegario,-18.42,-46.42,BR,1572374087,77.0,67,83,7.81
Thaton,16.91,97.37,MM,1572374087,77.2,89,14,1.59
Lahad Datu,5.02,118.33,MY,1572374087,77.83,86,83,1.41
Charyshskoye,51.4,83.56,RU,1572374087,42.46,76,87,8.14
Kokopo,-4.34,152.27,PG,1572374088,81.81,79,96,15.3
Bardsir,29.93,56.57,IR,1572374088,60.8,26,20,9.17
Paragominas,-3.0,-47.35,BR,1572374088,91.24,44,46,5.03
Armidale,-30.51,151.67,AU,1572374088,45.0,71,90,1.01
Awjilah,29.14,21.3,LY,1572374089,74.68,24,0,9.8
Wschowa,51.8,16.32,PL,1572374089,44.01,93,32,2.24
Sarajevo,43.85,18.39,BA,1572374089,50.0,87,100,2.24
Bodaybo,57.85,114.2,RU,1572374089,19.65,96,100,4.5
Rome,41.89,12.48,IT,1572373852,64.0,93,100,3.36
Asadabad,34.78,48.12,IR,1572374090,51.8,62,20,6.29
Arman,59.7,150.17,RU,1572374090,36.97,89,99,3.11
Pobe,6.98,2.66,BJ,1572374151,76.37,92,75,4.68
Makakilo City,21.35,-158.09,US,1572374051,79.0,88,1,4.7
Skrunda,56.68,22.02,LV,1572374152,37.4,86,59,4.7
Ahome,25.92,-109.18,MX,1572374152,87.01,42,5,9.17
Parnarama,-5.68,-43.09,BR,1572374153,102.97,19,11,5.19
Eureka,40.8,-124.16,US,1572373958,55.0,81,75,6.93
Merauke,-8.49,140.4,ID,1572374153,75.22,92,100,3.02
Mandalgovi,45.76,106.27,MN,1572374153,38.95,43,32,13.56
Teseney,15.11,36.66,ER,1572374153,90.99,30,8,10.0
Angoche,-16.23,39.91,MZ,1572374154,80.44,54,0,10.36
Krasnovishersk,60.4,57.08,RU,1572374154,16.65,91,18,4.25
Kerema,-7.96,145.78,PG,1572374154,73.74,91,100,3.6
Guadalupe y Calvo,26.09,-106.96,MX,1572374154,64.81,26,0,6.82
Sovetsk,55.08,21.89,RU,1572374155,39.0,84,48,8.46
Belokurikha,52.0,84.99,RU,1572374155,46.31,74,93,7.18
Shaoyang,27.23,111.45,CN,1572374155,57.51,64,0,1.5
Amahai,-3.31,129.0,ID,1572374155,80.01,98,97,5.23
Biak,-0.91,122.88,ID,1572374156,80.94,73,55,11.36
Orange Walk,17.93,-76.27,JM,1572374156,89.6,59,20,19.46
Hatton,6.89,80.6,LK,1572374156,68.11,93,100,2.77
Yavaros,26.7,-109.52,MX,1572374156,87.01,40,0,4.0
Surt,31.21,16.59,LY,1572374157,70.54,64,94,9.37
Presidente Epitacio,-21.76,-52.12,BR,1572374157,90.25,39,51,6.38
Moose Factory,51.26,-80.61,CA,1572374157,35.6,93,90,9.17
Sturgeon Bay,44.83,-87.38,US,1572374157,41.0,56,75,6.93
Santiago de Compostela,42.88,-8.55,ES,1572374158,66.99,100,90,3.36
Barabinsk,55.35,78.35,RU,1572374158,30.02,78,68,4.68
Ust-Uda,54.17,103.03,RU,1572374158,40.32,84,98,15.17
Kiruna,67.86,20.23,SE,1572374159,15.8,72,81,8.05
Nizhniy Chir,48.36,43.08,RU,1572374159,51.37,75,100,4.92
Trat,12.25,102.51,TH,1572374159,84.0,74,69,4.97
Hegang,47.34,130.28,CN,1572374159,30.81,80,1,8.03
Tarakan,3.3,117.63,ID,1572374159,79.86,81,42,1.01
Kouango,4.99,19.98,CF,1572374160,70.81,91,87,3.13
Chitipa,-9.7,33.27,MW,1572374160,70.57,31,0,2.26
Kuryk,43.18,51.68,KZ,1572374160,61.41,84,0,13.73
Bose,45.46,8.01,IT,1572374160,62.01,100,75,2.24
Upington,-28.46,21.24,ZA,1572374161,62.6,9,8,5.82
Zhuanghe,39.7,122.97,CN,1572374161,59.0,23,0,1.99
Paka,4.15,15.03,CF,1572374161,68.77,97,94,1.57
Tsabong,-26.02,22.4,BW,1572374161,65.37,5,0,10.31
Novorzhev,57.03,29.33,RU,1572374162,30.76,91,99,7.49
Edd,13.93,41.69,ER,1572374162,85.15,41,52,8.25
Sergeyevka,53.88,67.42,KZ,1572374162,38.07,79,81,4.81
Plettenberg Bay,-34.05,23.37,ZA,1572374162,57.11,66,43,12.08
Kaseda,31.42,130.32,JP,1572374163,55.0,100,0,4.0
Muzhi,65.4,64.7,RU,1572374163,18.25,77,0,16.75
Tomatlan,19.93,-105.25,MX,1572374163,85.53,49,0,4.03
Linxia,35.6,103.21,CN,1572374163,36.82,36,31,1.1
Sonepur,25.7,85.16,IN,1572374164,71.6,94,40,5.23
Mnogovershinnyy,53.94,139.92,RU,1572374164,35.13,95,100,3.44
Amga,60.89,131.98,RU,1572374164,9.84,94,7,2.37
Safranbolu,41.25,32.69,TR,1572374164,46.15,93,9,2.37
Sinop,42.03,35.15,TR,1572374165,59.29,84,32,4.63
Okhotsk,59.36,143.24,RU,1572374165,32.77,85,100,6.4
Normandin,48.84,-72.53,CA,1572374165,57.2,71,75,9.17
Opportunity,46.11,-112.83,US,1572374226,16.0,60,1,4.7
Yar-Sale,66.83,70.83,RU,1572374227,15.55,82,63,20.29
Zemio,5.02,25.13,CF,1572374227,72.61,78,26,2.48
Kaeo,-35.1,173.78,NZ,1572374228,48.99,100,1,16.49
Nouadhibou,20.93,-17.03,MR,1572374229,80.6,57,0,16.11
Flekkefjord,58.3,6.66,NO,1572374229,44.01,79,0,1.99
Mpraeso,6.6,-0.73,GH,1572374230,73.47,90,31,2.19
Narni,42.52,12.52,IT,1572374230,63.0,93,20,2.13
Yamnytsya,48.99,24.71,UA,1572374230,42.8,75,75,6.71
Aginskoye,51.11,114.54,RU,1572374232,31.87,81,56,6.53
Aitape,-3.15,142.36,PG,1572374232,81.72,78,100,4.83
Ugoofaaru,5.67,73.0,MV,1572374233,76.33,90,100,13.31
Urusha,54.05,122.9,RU,1572373985,19.22,92,91,1.74
Lilongwe,-13.97,33.79,MW,1572374233,75.88,34,15,4.41
Boyolangu,-8.09,111.9,ID,1572374233,70.72,94,70,4.52
Cheney,47.49,-117.58,US,1572374234,30.2,38,1,6.93
Selma,32.41,-87.02,US,1572374234,73.4,60,99,3.36
Talara,-4.58,-81.27,PE,1572374234,62.6,100,27,13.87
Barghat,22.03,79.74,IN,1572374235,70.79,86,96,4.34
Imbituba,-28.24,-48.67,BR,1572374235,80.6,74,75,40.26
South Valley,35.01,-106.68,US,1572374235,57.99,23,1,4.7
Kyabe,9.45,18.94,TD,1572374235,78.17,60,34,3.78
Benxi,41.29,123.76,CN,1572374236,37.4,55,0,8.95
Zavetnoye,47.12,43.89,RU,1572374236,51.53,60,84,2.95
Abu Samrah,35.3,37.18,SY,1572374236,63.97,73,25,11.77
Wattegama,7.35,80.68,LK,1572374237,71.82,97,100,1.36
Otane,-39.89,176.62,NZ,1572374237,44.01,92,0,3.11
Turochak,52.26,87.12,RU,1572374238,45.55,82,100,8.21
Songadh,21.71,71.89,IN,1572374238,82.09,72,88,1.88
Sakaiminato,35.55,133.23,JP,1572374239,59.0,87,75,4.7
Gaoua,10.33,-3.18,BF,1572374239,84.11,54,18,5.97
Ban Dung,17.7,103.25,TH,1572374239,67.53,71,0,5.64
Kapuskasing,49.42,-82.43,CA,1572374239,37.4,77,40,5.82
Dover,39.16,-75.52,US,1572374141,66.2,77,90,1.48
San Ramon de la Nueva Oran,-23.13,-64.33,AR,1572374240,105.19,23,0,6.51
Rosetta,31.4,30.42,EG,1572374241,73.4,64,40,5.82
Tutoia,-2.76,-42.27,BR,1572374241,87.8,62,20,20.8
Kroya,-6.5,108.06,ID,1572374241,76.05,79,72,3.49
Quang Ngai,15.12,108.8,VN,1572374010,75.85,87,100,22.97
Roald,62.58,6.12,NO,1572374242,41.0,86,75,11.41
Hirna,9.22,41.1,ET,1572374242,59.38,32,83,6.38
Garzon,47.81,-3.64,FR,1572374243,55.99,93,90,11.41
Acapulco,16.86,-99.88,MX,1572374091,87.8,62,40,8.05
Iranduba,-3.28,-60.19,BR,1572374244,89.6,55,40,2.24
Hauterive,49.18,-68.27,CA,1572374244,53.6,93,90,6.93
Porto Seguro,-16.44,-39.06,BR,1572374245,84.2,62,40,14.99
Nara,34.68,135.8,JP,1572374245,62.6,93,31,5.82
Bell Ville,-32.63,-62.69,AR,1572374245,84.0,34,51,11.01
Iturama,-19.73,-50.2,BR,1572374246,93.96,32,14,3.44
Bada,7.45,3.75,NG,1572374307,74.12,92,83,4.34
Orhei,47.39,28.83,MD,1572374307,50.0,81,75,5.82
Lincoln,53.23,-0.54,GB,1572374213,46.4,87,40,9.17
Ilebo,-4.33,20.59,CD,1572374308,71.28,90,100,2.26
Winneba,5.35,-0.62,GH,1572374308,78.8,88,20,10.29
Dudinka,69.41,86.18,RU,1572374308,-4.01,83,40,6.71
Bumba,2.18,22.47,CD,1572374308,71.98,93,80,1.41
Tacna,-18.01,-70.25,PE,1572374231,69.8,49,52,9.17
Srivardhan,18.03,73.02,IN,1572374050,78.26,88,11,3.4
Chifeng,42.27,118.96,CN,1572374309,40.17,39,4,11.16
George,-15.35,34.83,MW,1572374309,85.46,19,4,5.08
Pauini,-7.71,-67.0,BR,1572374310,94.57,42,58,3.33
Pitanga,-24.76,-51.76,BR,1572374310,84.92,59,24,1.63
San Ignacio,-5.15,-79.0,PE,1572374310,75.07,78,18,3.6
De-Kastri,51.48,140.77,RU,1572374310,45.75,87,100,7.92
Sao Felix do Xingu,-6.64,-51.99,BR,1572374311,81.41,71,100,3.22
Jurmala,56.97,23.77,LV,1572374311,32.0,62,40,2.24
Najran,17.54,44.22,SA,1572374311,75.2,17,28,6.93
Black Diamond,50.69,-114.23,CA,1572374312,21.99,56,1,6.29
Hatillo,18.49,-66.83,PR,1572374312,86.0,83,90,13.87
Choma,-16.81,26.98,ZM,1572374312,80.8,17,21,6.24
Bukachacha,52.99,116.91,RU,1572374313,28.89,98,100,4.23
Noumea,-22.28,166.46,NC,1572374313,73.99,82,75,2.24
Juneau,58.3,-134.42,US,1572374313,42.8,93,90,14.99
Itambe,-15.24,-40.62,BR,1572374313,82.78,49,54,8.01
Omboue,-1.57,9.26,GA,1572374313,75.92,86,83,4.05
Kholtoson,50.3,103.31,RU,1572374314,31.77,73,67,4.61
Tabou,4.42,-7.36,CI,1572374314,74.52,97,100,2.3
Leek,53.11,-2.02,GB,1572374314,46.0,81,75,5.82
Tahoua,14.89,5.26,NE,1572374315,82.4,58,40,6.93
Tucuman,-17.17,-70.89,PE,1572374315,72.03,13,13,12.93
Rodeo,25.18,-104.56,MX,1572374315,76.71,33,0,11.5
Seddon,-37.81,144.89,AU,1572374315,62.6,72,74,13.87
Rio Brilhante,-21.8,-54.54,BR,1572374316,103.28,21,17,6.51
Yanam,16.73,82.22,IN,1572374316,82.4,83,20,4.7
Nizhniy Odes,63.64,54.86,RU,1572374105,24.57,86,100,9.62
Somerset East,-32.72,25.59,ZA,1572374316,47.41,45,0,8.61
Panzhihua,26.59,101.72,CN,1572374317,55.42,85,33,0.74
Hattiesburg,31.33,-89.29,US,1572374317,66.99,77,90,8.05
Umuahia,5.53,7.5,NG,1572374317,75.85,90,19,4.59
Topeka,39.05,-95.68,US,1572374317,37.99,69,90,6.93
Otradnoye,59.77,30.8,RU,1572374317,32.0,94,90,11.18
Batamshinskiy,50.56,58.27,KZ,1572374318,46.4,81,25,4.47
Meadow Lake,54.13,-108.44,CA,1572374318,19.4,62,20,13.87
Puerto Leguizamo,-0.19,-74.78,CO,1572374318,95.9,39,49,2.68
Marsa Matruh,31.35,27.25,EG,1572374318,71.6,64,0,8.05
Ongandjera,-17.88,15.07,NA,1572374318,89.71,12,0,5.41
Araouane,18.9,-3.53,ML,1572374319,82.44,14,0,9.44
Oil City,41.43,-79.71,US,1572374319,70.0,63,75,14.99
Ukiah,39.15,-123.21,US,1572374319,63.0,19,3,5.99
Ankang,32.73,108.99,CN,1572374319,53.58,79,94,2.55
Ishim,56.11,69.47,RU,1572374319,31.62,67,100,1.61
Mingguang,32.78,118.01,CN,1572374320,55.4,31,0,6.31
Lima,-12.06,-77.04,PE,1572374320,66.2,77,90,5.82
Camacha,33.08,-16.33,PT,1572374381,75.2,88,75,8.05
Bitung,1.44,125.19,ID,1572374381,75.2,94,40,1.05
Ituiutaba,-18.97,-49.46,BR,1572374382,91.74,37,11,4.68
Antofagasta,-23.65,-70.4,CL,1572374382,62.6,67,40,18.34
Santa Rosa,-36.62,-64.29,AR,1572374213,78.39,28,6,7.76
Ardakan,32.31,54.02,IR,1572374382,66.2,39,0,4.7
Balkanabat,39.51,54.36,TM,1572374383,58.26,55,0,4.45
Hirado,33.32,129.49,JP,1572374383,64.0,63,20,11.41
San Ramon,12.92,-85.84,NI,1572374383,78.8,61,40,9.17
Dabhol,17.6,73.17,IN,1572374383,81.66,84,17,8.88
Monywa,22.12,95.13,MM,1572374383,77.85,81,22,2.44
Malanje,-9.54,16.35,AO,1572374384,68.83,91,57,4.99
Ketou,7.36,2.6,BJ,1572374384,76.98,88,73,5.37
Weiser,44.25,-116.97,US,1572374384,35.6,16,1,12.75
Winona,43.21,-79.65,CA,1572374384,66.2,72,75,13.87
Tessaoua,13.76,7.99,NE,1572374385,87.94,32,95,2.8
Terenos,-20.44,-54.87,BR,1572374385,95.0,39,75,14.99
Nenjiang,49.17,125.23,CN,1572374385,28.8,82,67,6.53
Brae,60.4,-1.35,GB,1572374385,41.0,86,69,3.36
Pitsunda,43.16,40.34,GE,1572374386,57.2,93,40,2.24
Lucapa,-8.42,20.74,AO,1572374386,70.88,91,87,3.76
Linhares,-19.38,-40.06,BR,1572374386,85.71,53,63,11.74
Jaisinghnagar,23.63,78.57,IN,1572374387,70.61,80,53,3.09
Paramonga,-10.68,-77.82,PE,1572374387,60.73,87,52,10.04
Calama,-22.46,-68.93,CL,1572374387,78.01,7,2,26.4
Lobva,59.19,60.52,RU,1572374388,23.52,75,0,6.6
Sadove,46.25,30.18,UA,1572374388,50.0,93,40,4.47
Phan Thiet,10.93,108.1,VN,1572374388,72.54,92,100,4.56
Takaungu,-3.68,39.86,KE,1572374388,80.6,83,40,5.82
Safonovo,55.11,33.24,RU,1572374388,34.81,96,67,8.23
Requena,39.49,-1.1,ES,1572374389,68.0,77,21,1.12
Oranjestad,12.52,-70.03,AW,1572374389,87.8,66,20,18.34
Mandan,46.83,-100.89,US,1572374389,23.0,57,90,21.92
Taitung,22.76,121.15,TW,1572374389,56.16,94,97,2.1
Mgandu,-5.96,34.11,TZ,1572374389,73.09,39,72,3.2
Jardim,-21.48,-56.15,BR,1572374390,105.33,20,0,8.72
Shwebo,22.57,95.7,MM,1572374390,75.72,84,13,2.98
Fort-Shevchenko,44.51,50.26,KZ,1572374390,57.04,45,29,10.54
Macheng,31.18,115.03,CN,1572374391,57.02,39,0,2.86
Dalvik,57.79,14.13,SE,1572374391,36.0,92,0,3.36
Shunyi,40.13,116.65,CN,1572374391,54.0,86,0,4.47
Zhigalovo,54.81,105.15,RU,1572374392,38.32,87,100,14.34
Belfast,54.6,-5.93,GB,1572374392,48.99,75,29,6.93
Tomohon,1.33,124.84,ID,1572374392,75.2,94,40,1.05
Winnetka,42.11,-87.74,US,1572374392,42.01,72,90,4.7
Twentynine Palms,34.14,-116.05,US,1572374393,68.0,16,1,8.05
Venustiano Carranza,19.42,-99.11,MX,1572374393,75.2,46,75,5.82
Avon Lake,41.51,-82.02,US,1572374393,62.6,58,90,11.41
Deloraine,-41.53,146.66,AU,1572374393,48.99,87,75,11.41
Muscat,23.6,58.55,OM,1572374295,82.4,74,2,6.93
Zhanakorgan,43.91,67.25,KZ,1572374394,56.17,30,91,4.47
Araci,-11.34,-38.96,BR,1572374394,90.39,35,94,17.6
Chachapoyas,-6.23,-77.87,PE,1572374394,64.92,88,62,3.83
Laerdalsoyri,61.1,7.48,NO,1572374395,30.99,100,20,10.29
Singaraja,-8.11,115.08,ID,1572374395,80.64,68,52,8.66
Guisa,20.25,-76.54,CU,1572374395,89.6,55,40,16.11
Chara,39.42,22.43,GR,1572374456,60.8,87,0,5.82
Uglerodovskiy,48.15,40.06,RU,1572374457,49.23,85,100,5.53
Damghan,36.17,54.34,IR,1572374457,61.34,46,25,3.78
Macusani,-14.07,-70.43,PE,1572374457,49.3,49,96,10.38
Khasan,42.43,130.64,RU,1572374457,37.31,64,0,5.7
Katherine,-14.47,132.26,AU,1572374457,80.6,42,90,5.82
Canto do Buriti,-8.11,-42.94,BR,1572374458,95.7,24,31,8.68
Talusan,14.24,122.77,PH,1572374458,78.24,89,100,5.68
Recodo,13.03,121.49,PH,1572374458,78.08,85,77,8.25
Port-Gentil,-0.72,8.78,GA,1572374213,82.4,78,20,8.05
Soller,50.73,6.56,DE,1572374459,48.0,75,20,8.05
Raudeberg,61.99,5.14,NO,1572374460,41.0,86,75,10.36
Kasamwa,-2.84,32.42,TZ,1572374460,68.68,83,94,6.89
Pleszew,51.9,17.79,PL,1572374461,44.01,92,68,5.95
Marquette,46.54,-87.4,US,1572374462,42.01,64,5,9.17
Arica,-18.48,-70.32,CL,1572374465,69.8,56,98,12.75
Lagos,6.46,3.39,NG,1572374465,80.6,78,20,2.24
Nosy Varika,-20.58,48.53,MG,1572374465,73.17,92,28,3.76
Fare,-16.7,-151.02,PF,1572374465,79.3,78,54,11.99
Playas,-2.64,-80.39,EC,1572374466,73.87,73,56,14.34
Sheltozero,61.37,35.37,RU,1572374466,33.01,59,83,2.06
stisu,40.95,48.07,AZ,1572374466,53.6,76,75,3.36
Pemba,-12.97,40.52,MZ,1572374467,77.0,83,20,14.99
Ambanja,-13.68,48.45,MG,1572374467,78.73,76,9,2.55
Orchard Homes,46.86,-114.05,US,1572374468,18.0,56,1,4.7
Pangoa,-12.12,-73.0,PE,1572374468,91.36,42,82,4.38
Potsdam,52.4,13.06,DE,1572374287,45.0,86,11,2.24
Miandrivazo,-19.53,45.46,MG,1572374468,80.98,70,74,9.28
Mehran,33.12,46.17,IR,1572374468,51.8,87,0,4.7
Salem,44.94,-123.03,US,1572374469,45.0,22,1,11.41
Douglas,58.28,-134.39,US,1572374469,42.8,93,90,14.99
Beaverlodge,55.21,-119.43,CA,1572374469,15.8,92,75,5.61
Sayhat,26.49,50.04,SA,1572374469,87.8,62,0,10.29
Annonay,45.24,4.67,FR,1572374470,59.0,87,67,12.75
Stutterheim,-32.57,27.43,ZA,1572374470,60.8,55,0,19.46
Saint-Paul,45.22,1.9,FR,1572374470,62.01,87,47,1.12
Beidao,34.57,105.89,CN,1572374471,47.3,73,0,2.24
Vanderhoof,54.02,-124.02,CA,1572374471,30.13,34,95,2.75
Tsurib,42.24,46.83,RU,1572374471,27.99,83,94,4.41
Ntchisi,-13.36,33.92,MW,1572374471,75.34,33,46,3.18
Aktau,43.65,51.16,KZ,1572374471,53.6,93,75,8.95
Nkwerre,5.75,7.12,NG,1572374472,75.97,89,83,5.77
Tripoli,37.51,22.37,GR,1572374472,69.01,77,0,5.82
Chernyanka,50.94,37.8,RU,1572374472,42.8,72,72,6.89
Nichinan,31.65,131.31,JP,1572374473,55.0,100,38,4.0
Surab,28.49,66.26,PK,1572374473,57.25,38,0,1.1
Goya,-29.14,-59.27,AR,1572374473,94.8,49,0,8.86
Alyangula,-13.85,136.42,AU,1572374474,71.6,94,8,3.62
Hammerfest,70.66,23.68,NO,1572374474,32.0,79,75,20.8
Tereze,43.94,42.44,RU,1572374474,51.8,76,90,4.47
Rong Kwang,18.34,100.32,TH,1572374474,68.56,97,11,1.92
Vernon,50.27,-119.27,CA,1572374475,33.01,31,1,2.24
Kannur,11.88,75.37,IN,1572374475,80.6,88,75,2.24
Lae,-6.72,146.98,PG,1572374475,62.53,82,100,4.27
Trairi,-3.28,-39.27,BR,1572374475,91.35,33,0,13.82
Igra,57.55,53.1,RU,1572374536,27.0,66,40,1.72
Killin,33.61,-91.74,US,1572374537,66.2,68,1,6.93
Birjand,32.86,59.22,IR,1572374537,53.6,50,0,4.7
Tieling,42.29,123.84,CN,1572374537,40.66,37,0,11.1
Jizan,16.89,42.56,SA,1572374538,87.8,66,20,6.93
Baie-Saint-Paul,47.44,-70.51,CA,1572374538,46.99,93,100,8.01
Tobermory,45.25,-81.67,CA,1572374538,48.99,77,84,1.01
Ambon,47.55,-2.56,FR,1572374538,55.99,100,90,5.82
Paraiso,-0.03,-51.17,BR,1572374538,95.0,36,20,17.22
Valdosta,30.83,-83.28,US,1572374539,77.0,100,75,8.21
Pietermaritzburg,-29.6,30.38,ZA,1572374539,66.99,91,100,2.68
Spirit River,55.78,-118.84,CA,1572374539,19.99,92,75,5.21
Sopot,42.65,24.76,BG,1572374539,53.6,57,5,2.24
Meridian,43.61,-116.39,US,1572374379,35.6,42,1,8.05
Srikakulam,18.29,83.89,IN,1572374540,75.38,87,14,2.53
Sri Aman,1.24,111.46,MY,1572374540,73.4,100,93,0.27
Dedougou,12.47,-3.47,BF,1572374541,90.19,32,64,2.44
Baherden,38.44,57.43,TM,1572374541,58.98,31,43,4.05
Tarragona,41.12,1.25,ES,1572374541,66.0,100,67,3.83
Santa Maria do Suacui,-18.19,-42.41,BR,1572374542,86.27,37,0,7.23
Niono,14.25,-5.99,ML,1572374542,90.59,14,0,8.21
Mackenzie,55.34,-123.09,CA,1572374542,24.8,58,1,13.87
Dole,47.09,5.49,FR,1572374543,51.01,93,90,6.93
Capaci,38.17,13.24,IT,1572374543,73.0,77,20,4.7
Ozernovskiy,51.5,156.52,RU,1572374544,38.48,92,25,0.83
Luangwa,-15.62,30.4,MZ,1572374544,90.41,18,13,5.35
Tabory,53.89,19.53,PL,1572374544,37.99,78,62,1.01
Ouagadougou,12.37,-1.53,BF,1572374545,91.4,41,20,4.7
General Bravo,25.79,-99.18,MX,1572374545,89.08,46,0,12.66
Bahia de Caraquez,-0.6,-80.42,EC,1572374545,78.8,78,75,6.93
Liverpool,53.41,-2.98,GB,1572374397,46.99,87,20,12.75
Isabela,10.2,122.99,PH,1572374546,72.93,87,100,2.15
Pfullendorf,47.92,9.25,DE,1572374546,46.99,87,90,10.29
Tafalla,42.53,-1.67,ES,1572374546,66.2,77,20,2.24
Polunochnoye,60.87,60.43,RU,1572374546,20.43,81,58,7.23
Asyut,27.18,31.19,EG,1572374547,68.54,29,100,8.61
Kourou,5.16,-52.64,GF,1572374547,91.4,52,21,12.75
Isla Mujeres,21.23,-86.73,MX,1572374547,87.8,70,75,12.75
White Center,47.52,-122.36,US,1572374548,46.0,17,1,6.93
Acajutla,13.59,-89.83,SV,1572374548,86.0,62,20,2.24
Ca Mau,9.18,105.15,VN,1572374548,75.06,90,85,1.72
Xining,36.62,101.77,CN,1572374548,34.48,37,64,4.0
Salym,60.06,71.48,RU,1572374549,17.96,90,0,8.43
Riviere-au-Renard,49.0,-64.4,CA,1572374549,48.2,76,90,5.82
Palafrugell,41.92,3.16,ES,1572374549,64.0,88,100,2.24
Gorin,12.34,-0.67,BF,1572374549,91.9,32,40,5.75
Labytnangi,66.66,66.39,RU,1572374550,16.86,82,77,19.95
Exeter,50.73,-3.53,GB,1572374550,51.01,87,75,11.41
Aquiraz,-3.9,-38.39,BR,1572374550,86.0,51,20,18.34
Pedernales,0.07,-80.05,EC,1572374551,79.52,70,96,8.93
Seymchan,62.93,152.39,RU,1572374551,15.44,98,83,3.62
Bambanglipuro,-7.95,110.28,ID,1572374551,71.1,94,100,0.45
Mabopane,-25.51,28.07,ZA,1572374613,71.6,18,0,3.36
Emerald,-23.53,148.16,AU,1572374613,71.6,68,99,12.75
Ludvika,60.15,15.18,SE,1572374613,37.4,55,24,5.82
Zangakatun,39.82,45.04,AM,1572374613,53.6,54,20,2.24
Wittelsheim,47.8,7.24,FR,1572374614,48.0,100,90,6.93
Alwar,27.56,76.61,IN,1572374614,77.22,27,100,1.07
Mizan Teferi,6.99,35.58,ET,1572374614,62.13,95,84,3.2
Mao,19.55,-71.08,DO,1572374614,86.0,74,40,11.41
Songea,-10.68,35.65,TZ,1572374614,75.25,32,0,5.82
Busteni,45.4,25.53,RO,1572374615,57.99,85,80,1.36
Teruel,40.34,-1.11,ES,1572374615,60.8,72,2,4.7
Ornskoldsvik,63.29,18.72,SE,1572374615,28.4,73,0,8.05
Bequimao,-2.45,-44.78,BR,1572374615,87.8,58,20,17.22
Ilo,-17.65,-71.34,PE,1572374616,69.8,68,72,9.17
The Pas,53.82,-101.24,CA,1572374616,21.2,79,90,19.46
Cardoso,-20.08,-49.91,BR,1572374616,93.96,38,2,0.69
Orasje,42.95,22.1,RS,1572374616,59.0,67,0,5.82
Kirkland Lake,48.15,-80.03,CA,1572374616,35.6,100,90,10.29
Marsh Harbour,26.54,-77.06,BS,1572374617,80.74,76,37,11.77
Vila,45.18,8.4,IT,1572374617,62.01,100,75,3.36
Papillion,41.15,-96.04,US,1572374617,39.2,74,40,8.05
Chippewa Falls,44.94,-91.39,US,1572374403,43.0,47,40,9.17
Mezen,65.85,44.24,RU,1572374617,24.98,87,98,11.05
Coxim,-18.5,-54.75,BR,1572374618,95.25,34,51,7.07
Edson,53.59,-116.44,CA,1572374618,14.0,66,1,3.36
Floresta,-8.6,-38.57,BR,1572374618,96.19,19,64,16.84
Kostomuksha,64.59,30.6,RU,1572374618,22.12,94,90,4.36
Brigantine,39.41,-74.36,US,1572374618,66.0,88,90,6.93
Maputo,-25.97,32.57,MZ,1572374619,73.4,60,75,13.87
Stayner,44.42,-80.09,CA,1572374619,60.01,72,90,9.17
Cocula,20.37,-103.82,MX,1572374619,81.0,57,40,1.81
Bogorodskoye,52.37,140.44,RU,1572374619,36.5,98,100,2.77
Lichinga,-13.3,35.25,MZ,1572374620,78.46,27,7,5.88
Silifke,36.38,33.93,TR,1572374620,60.66,56,0,6.82
Cessnock,-32.83,151.35,AU,1572374620,60.01,87,71,4.7
Setermoen,68.86,18.35,NO,1572374620,19.4,92,75,9.17
Wilson,35.72,-77.92,US,1572374410,75.2,69,90,3.36
Opunake,-39.45,173.86,NZ,1572374621,48.0,89,30,1.01
Petatlan,17.52,-101.27,MX,1572374621,91.4,52,40,2.64
Progreso,-34.68,-56.22,UY,1572374621,64.99,77,75,10.29
Canico,32.63,-16.85,PT,1572374621,75.2,78,40,6.93
Bull Savanna,17.89,-77.59,JM,1572374622,83.86,60,1,8.23
Marevo,43.57,18.7,BA,1572374622,50.0,87,90,2.24
Bamnet Narong,15.5,101.69,TH,1572374622,74.55,75,14,10.65
Salekhard,66.54,66.62,RU,1572374623,16.86,82,77,19.95
Lingao,19.91,109.69,CN,1572374623,77.09,67,55,18.23
Humaita,-24.93,-65.37,AR,1572374623,98.6,28,20,17.22
Pyshma,56.95,63.25,RU,1572374623,27.72,67,0,2.3
Mount Pleasant,33.16,-94.97,US,1572374586,68.0,82,90,4.79
Libertad,-34.7,-58.68,AR,1572374624,75.99,49,50,13.87
Son La,21.32,103.9,VN,1572374624,58.98,75,2,2.28
Pitimbu,-7.47,-34.81,BR,1572374624,82.4,61,75,17.22
Whitehorse,60.72,-135.06,CA,1572374624,37.4,69,75,11.41
Nikel,69.41,30.21,NO,1572374625,24.8,79,92,20.8
Groningen,53.22,6.57,NL,1572374579,44.01,86,0,3.36
Guntakal,15.16,77.38,IN,1572374625,74.46,83,98,7.49
Fernley,39.61,-119.25,US,1572374625,44.01,23,1,11.41
Kautokeino,69.01,23.04,NO,1572374686,12.58,76,55,4.0
Zunheboto,26.02,94.53,IN,1572374686,58.21,97,8,2.98
Mineiros,-17.57,-52.55,BR,1572374687,90.61,36,31,5.91
Dyshne-Vedeno,42.96,46.12,RU,1572374687,55.4,76,96,4.47
Glazunovka,52.5,36.32,RU,1572374688,40.5,71,27,11.34
Hun,50.34,4.87,BE,1572374688,45.0,87,66,8.05
Tvoroyri,61.56,-6.81,FO,1572374688,44.6,75,97,11.41
Cap-aux-Meules,47.38,-61.86,CA,1572374688,46.4,70,20,4.7
Chibuto,-24.69,33.53,MZ,1572374688,72.19,63,94,13.24
Green River,41.53,-109.47,US,1572374689,6.01,77,90,32.21
Roebourne,-20.77,117.15,AU,1572374689,78.8,28,1,12.57
Lianzhou,24.79,112.38,CN,1572374689,53.02,77,0,4.27
Chimoio,-19.11,33.48,MZ,1572374689,78.8,69,75,15.3
Kaluga,54.51,36.26,RU,1572374689,39.2,93,94,6.71
Panguna,-6.32,155.48,PG,1572374690,69.69,94,100,3.29
Santa Lucia,41.98,12.66,IT,1572374690,64.0,93,100,3.36
Leopold,38.1,-86.58,US,1572374691,62.01,100,90,4.7
Erechim,-27.64,-52.27,BR,1572374691,89.6,58,75,20.8
Hanna,51.64,-111.93,CA,1572374691,25.0,73,0,10.0
Yabelo,4.89,38.09,ET,1572374692,65.8,83,58,13.31
Nikolayevka,46.73,38.57,RU,1572374692,55.4,66,89,4.65
Battipaglia,40.61,14.98,IT,1572374692,66.2,82,20,1.12
Krasnyy Chikoy,50.36,108.75,RU,1572374692,27.05,92,91,3.85
Joao Pinheiro,-17.74,-46.17,BR,1572374693,92.68,29,46,4.85
Hofn,64.25,-15.21,IS,1572374693,46.58,69,100,17.98
Bogande,12.97,-0.14,BF,1572374693,91.24,30,65,4.79
Providencia,1.24,-77.6,CO,1572374693,71.6,68,40,6.93
Soubre,5.79,-6.61,CI,1572374693,76.37,87,99,3.94
Beatrice,40.27,-96.75,US,1572374694,37.0,47,90,4.43
Tumpat,6.2,102.17,MY,1572374694,77.0,88,75,3.36
Oriximina,-1.77,-55.87,BR,1572374694,95.76,38,13,4.23
Mykolayiv,46.97,32.0,UA,1572374695,48.2,93,75,6.71
Claveria,8.61,124.89,PH,1572374695,73.99,93,70,5.01
Hvide Sande,56.01,8.13,DK,1572374695,37.4,86,0,4.83
Moses Lake,47.13,-119.28,US,1572374695,36.0,21,1,8.05
San Joaquin,10.59,122.14,PH,1572374696,75.38,89,84,2.62
Polessk,54.86,21.11,RU,1572374696,42.8,81,75,15.66
Maraba,-5.35,-49.1,BR,1572374696,91.4,52,40,6.93
Buchanan,5.88,-10.05,LR,1572374697,77.9,89,90,4.76
Guapi,2.57,-77.89,CO,1572374697,75.54,96,100,4.27
Orange,33.79,-117.85,US,1572374697,72.0,51,1,8.05
Beloye,45.05,39.65,RU,1572374697,59.0,76,90,6.49
Panaba,21.28,-88.27,MX,1572374697,88.39,56,93,6.62
Chiredzi,-21.05,31.67,ZW,1572374698,75.94,66,43,6.31
Mecca,21.43,39.83,SA,1572374505,82.24,42,8,3.4
Opotiki,-38.01,177.29,NZ,1572374698,48.0,74,33,4.0
Emirdag,39.02,31.15,TR,1572374698,53.56,57,0,4.25
New Iberia,30.0,-91.82,US,1572374699,78.8,100,90,4.7
Kalyazin,57.24,37.84,RU,1572374760,34.39,97,100,9.08
Yinchuan,38.48,106.21,CN,1572374760,46.99,17,76,1.01
Payo,-3.75,103.64,ID,1572374760,66.83,93,70,2.68
Jian,25.65,87.89,IN,1572374761,72.41,68,20,3.27
Gazli,40.13,63.45,UZ,1572374761,62.53,27,55,8.95
Adre,13.47,22.2,TD,1572374761,77.76,26,37,6.8
Desna,50.92,30.77,UA,1572374761,45.0,75,100,6.71
Anloga,5.79,0.9,GH,1572374761,80.6,83,40,9.17
Nalobikha,53.2,84.6,RU,1572374762,47.53,76,100,5.1
Takoradi,4.89,-1.75,GH,1572374752,79.09,85,74,13.15
Balao,-2.91,-79.82,EC,1572374762,78.8,69,90,6.93
Skole,49.04,23.51,UA,1572374762,43.0,77,100,0.69
Muzaffargarh,30.08,71.19,PK,1572374646,75.2,53,40,4.7
Karakol,42.49,78.39,KG,1572374763,36.93,38,0,3.31
Parabel,58.71,81.5,RU,1572374763,22.39,79,17,7.23
Venice,27.1,-82.45,US,1572374763,91.99,70,1,9.17
Poltavka,54.36,71.76,RU,1572374764,34.57,72,66,5.41
Kurumkan,54.33,110.32,RU,1572374764,31.66,99,100,8.39
Volovo,53.55,38.01,RU,1572374764,39.43,80,35,10.31
Glasgow,55.86,-4.24,GB,1572374541,44.6,87,20,5.82
Areia Branca,-10.76,-37.31,BR,1572374765,84.2,54,20,13.87
Mali,27.53,102.2,CN,1572374765,47.19,93,21,2.55
Geldern,51.52,6.32,DE,1572374765,46.99,75,0,2.24
Balsas,-7.53,-46.04,BR,1572374766,98.67,22,62,8.59
Kumba,4.64,9.44,CM,1572374766,76.03,88,26,1.77
Rwamagana,-1.95,30.43,RW,1572374766,69.8,68,40,2.24
Minab,27.15,57.07,IR,1572374766,80.6,74,0,6.93
Shubarkuduk,49.15,56.49,KZ,1572374767,52.57,29,33,9.33
Sun Valley,39.6,-119.78,US,1572374567,43.0,29,1,14.99
Baculin,7.45,126.58,PH,1572374767,71.33,91,100,5.08
Liling,27.65,113.49,CN,1572374767,53.6,93,0,1.72
Show Low,34.25,-110.03,US,1572374768,60.8,10,1,26.4
Diego de Almagro,-26.39,-70.05,CL,1572374768,85.26,11,0,15.21
Tevriz,57.51,72.4,RU,1572374768,24.89,78,0,3.69
Nassau,46.81,15.34,AT,1572374768,46.0,87,75,2.24
Nampula,-15.12,39.26,MZ,1572374768,80.6,51,0,11.41
Peterhead,-34.83,138.5,AU,1572374769,70.0,58,25,4.7
Lubao,-5.39,25.75,CD,1572374769,71.87,94,100,3.15
Bukama,-9.2,25.85,CD,1572374769,78.31,72,25,2.17
Wairoa,-39.04,177.43,NZ,1572374769,53.01,68,48,1.99
Guarapari,-20.67,-40.5,BR,1572374770,84.2,66,20,21.92
Bandarban,22.2,92.22,BD,1572374770,71.62,92,37,2.28
Brynmawr,51.8,-3.17,GB,1572374770,50.0,76,96,16.11
Zaysan,47.47,84.87,KZ,1572374770,44.28,56,0,1.03
Gap,44.56,6.08,FR,1572374771,54.0,82,46,4.34
Kallifonion,39.27,21.96,GR,1572374771,60.8,87,5,5.82
Kralendijk,12.15,-68.27,BQ,1572374771,89.6,62,21,16.11
Kincardine,44.18,-81.63,CA,1572374724,55.0,90,74,8.52
Ponnani,10.77,75.93,IN,1572374771,77.0,94,75,5.82
Seydi,13.34,7.75,NE,1572374772,86.0,58,98,2.24
Villanueva,15.32,-87.99,HN,1572374772,89.6,52,20,4.7
Ahmadabad,25.3,87.79,IN,1572374772,72.41,68,20,3.27
Timbo,5.57,-9.72,LR,1572374772,79.02,82,85,5.21
Nambucca Heads,-30.64,152.99,AU,1572374772,64.4,77,31,10.29
Siocon,11.03,124.04,PH,1572374773,78.82,86,96,6.85
Sibu,2.29,111.83,MY,1572374773,75.2,88,75,3.36
Sandpoint,48.28,-116.55,US,1572374773,28.99,38,1,4.7
Casablanca,33.6,-7.62,MA,1572374773,68.0,88,0,6.93
Strezhevoy,60.73,77.6,RU,1572374834,21.2,79,90,13.42
Akhalgori,42.13,44.48,GE,1572374835,60.8,63,32,12.75
La Rioja,-29.41,-66.86,AR,1572374835,76.91,46,0,10.13
Bijni,26.5,90.7,IN,1572374835,69.4,87,27,2.86
Calvia,39.57,2.51,ES,1572374836,69.8,88,98,3.36
Lemery,11.23,122.93,PH,1572374836,80.64,80,81,3.44
Uvira,-3.41,29.14,CD,1572374836,53.26,92,99,0.89
Murmashi,68.82,32.82,RU,1572374837,24.8,92,75,4.47
Alekseyevsk,57.84,108.35,RU,1572374837,39.94,90,100,14.18
Leo,11.1,-2.1,BF,1572374837,84.36,50,25,3.85
Lhokseumawe,5.18,97.15,ID,1572374838,71.56,87,84,2.26
Belyy Yar,53.6,91.39,RU,1572374838,48.2,66,100,4.47
Manbij,36.53,37.96,SY,1572374838,53.6,71,8,2.24
Sukumo,32.94,132.72,JP,1572374838,60.51,81,2,10.65
Laizhou,37.18,119.93,CN,1572374839,47.03,38,0,6.06
Port Moresby,-9.47,147.16,PG,1572374839,78.17,85,100,16.44
Warri,5.52,5.75,NG,1572374839,76.05,92,100,3.27
Camalu,30.85,-116.07,MX,1572374765,65.57,55,0,7.45
Jawa,5.32,95.93,ID,1572374840,80.55,76,100,5.39
Kijang,35.24,129.21,KR,1572374840,50.0,66,0,5.82
Miguel Calmon,-11.43,-40.6,BR,1572374840,88.23,30,89,7.67
Bocas del Toro,9.33,-82.25,PA,1572374841,72.0,60,100,5.01
Toropets,56.5,31.64,RU,1572374841,31.19,75,98,10.2
Tekeli,44.86,78.76,KZ,1572374841,38.7,27,0,4.38
Port Keats,-14.25,129.55,AU,1572374841,81.81,64,81,3.31
Zonguldak,41.25,31.83,TR,1572374841,47.98,95,4,2.26
Mankono,8.06,-6.19,CI,1572374842,77.45,82,16,2.71
Birobidzhan,48.79,132.93,RU,1572374842,35.26,94,100,4.05
Boende,-0.28,20.88,CD,1572374842,70.18,98,100,1.99
Bastia,44.6,8.98,IT,1572374842,64.99,88,40,4.7
Peque,7.02,-75.91,CO,1572374842,71.64,75,8,2.53
Batagay-Alyta,67.8,130.41,RU,1572374843,0.68,97,100,2.08
Kormilovka,55.0,74.1,RU,1572374843,28.4,63,70,4.47
Atbasar,51.81,68.36,KZ,1572374843,48.4,63,100,8.93
Presque Isle,46.68,-68.02,US,1572374843,50.0,81,90,9.17
Armizonskoye,55.95,67.67,RU,1572374844,30.13,75,53,4.29
Tatarsk,55.22,75.96,RU,1572374844,30.2,80,71,2.82
Porirua,-41.14,174.84,NZ,1572374844,50.0,81,5,11.41
Chabahar,25.29,60.65,IR,1572374845,79.45,64,13,6.62
Kisanga,-11.72,27.4,CD,1572374845,73.45,45,25,3.6
Baiyin,36.55,104.13,CN,1572374845,30.2,63,39,8.95
Indianola,40.24,-100.42,US,1572374846,30.2,80,90,12.75
Santa Luzia,-19.77,-43.85,BR,1572374846,87.8,37,40,6.93
Mogadishu,2.04,45.34,SO,1572374653,80.96,85,27,8.08
Ballina,54.11,-9.15,IE,1572374846,46.99,86,33,13.87
High Prairie,55.43,-116.48,CA,1572374847,19.47,59,15,4.54
Chernyakhovsk,54.64,21.81,RU,1572374847,38.52,82,58,8.08
Makarov,48.62,142.78,RU,1572374847,47.1,94,100,17.72
Sinjar,35.59,37.0,SY,1572374847,63.97,73,25,11.77
Liwale,-9.8,37.92,TZ,1572374848,78.33,40,0,7.78
Zachepylivka,49.2,35.24,UA,1572374848,46.72,56,70,5.48
Les Cayes,18.19,-73.75,HT,1572374848,82.38,73,95,1.52
Minsk,53.9,27.56,BY,1572374848,30.2,92,20,4.47
Sangar,63.92,127.47,RU,1572374910,12.96,83,87,11.41
Batouri,4.44,14.36,CM,1572374910,70.48,95,63,3.22
Santa Rosalia,38.07,13.27,IT,1572374910,73.0,77,20,4.7
Jilib,0.49,42.79,SO,1572374910,79.0,85,96,4.61
Pandan,11.72,122.09,PH,1572374910,82.38,71,68,3.11
Karanja,20.48,77.49,IN,1572374911,75.42,82,3,3.78
Nogliki,51.8,143.14,RU,1572374911,42.1,90,100,18.81
Joensuu,62.6,29.76,FI,1572374911,28.0,85,90,10.29
Ayagoz,47.96,80.43,KZ,1572374912,41.4,56,45,3.11
Umea,63.83,20.26,SE,1572374799,21.2,92,0,6.93
Shu,43.6,73.76,KZ,1572374912,51.58,46,0,4.43
Taree,-31.91,152.46,AU,1572374912,55.99,100,90,4.29
Bemidji,47.48,-94.89,US,1572374912,30.2,62,90,14.99
Entre Rios,-11.94,-38.08,BR,1572374913,82.49,55,85,9.53
Eucaliptus,-17.6,-67.51,BO,1572374913,77.0,23,20,16.11
Sterling,39.0,-77.4,US,1572374913,66.99,72,90,5.82
Wenling,28.38,121.38,CN,1572374913,71.01,65,0,6.73
Santa Cruz de Tenerife,28.47,-16.25,ES,1572374914,78.01,68,0,6.93
Tuscaloosa,33.21,-87.57,US,1572374749,71.01,68,75,4.7
Dovers,12.88,-61.18,VC,1572374914,86.0,74,40,1.12
Serebryanyy Bor,56.8,124.8,RU,1572374914,7.84,95,82,2.8
Port-de-Bouc,43.4,4.98,FR,1572374914,66.0,88,63,6.93
Buhovo,42.76,23.57,BG,1572374915,53.6,62,15,3.36
Havoysund,71.0,24.66,NO,1572374915,32.0,70,75,13.87
Lashio,22.93,97.75,MM,1572374915,63.19,96,19,2.37
Itapage,-3.69,-39.59,BR,1572374915,91.35,33,0,13.82
Heves,47.6,20.29,HU,1572374916,46.4,93,100,6.93
Kasongo-Lunda,-6.48,16.82,CD,1572374916,70.88,97,88,2.68
Fontenay-le-Fleury,48.81,2.05,FR,1572374916,52.0,66,100,6.93
Begunitsy,59.58,29.3,RU,1572374916,32.0,92,90,13.42
Puro,13.13,123.76,PH,1572374916,79.29,87,53,7.38
Rabo de Peixe,37.8,-25.58,PT,1572374917,69.8,88,40,17.22
High Level,58.52,-117.13,CA,1572374917,15.8,85,75,9.17
Kristiansund,63.12,7.73,NO,1572374917,42.8,70,75,17.22
Sivas,39.75,37.01,TR,1572374918,39.2,93,40,2.24
Avare,-23.1,-48.93,BR,1572374918,90.23,33,10,6.4
Daur,26.46,68.32,PK,1572374918,77.0,73,40,4.7
Talcahuano,-36.72,-73.12,CL,1572374918,60.8,72,40,13.87
Elizabethtown,40.15,-76.6,US,1572374918,64.0,72,90,3.36
Losal,27.4,74.92,IN,1572374919,77.09,24,100,4.25
Assare,-6.87,-39.88,BR,1572374919,97.12,16,0,8.61
Funehiki,37.43,140.58,JP,1572374919,55.99,65,0,3.76
Arona,45.76,8.56,IT,1572374919,60.8,100,75,3.36
Poykovskiy,61.23,73.33,RU,1572374919,23.0,79,75,15.66
Aquidauana,-20.47,-55.78,BR,1572374920,105.96,21,3,10.13
Monteagudo,-19.8,-63.96,BO,1572374920,69.8,88,0,4.7
Warrnambool,-38.38,142.48,AU,1572374646,55.0,91,50,3.85
Bullhead City,35.15,-114.57,US,1572374921,64.0,12,1,3.56
Berdigestyakh,62.1,126.7,RU,1572374921,13.46,95,74,7.4
Abnub,27.27,31.15,EG,1572374921,70.18,32,28,9.64
Xinzhi,22.54,120.62,TW,1572374921,75.2,73,75,3.36
Inuvik,68.36,-133.71,CA,1572374922,46.4,69,40,10.29
Yerofey Pavlovich,53.97,121.97,RU,1572374922,20.46,88,93,0.92
Chumikan,54.72,135.31,RU,1572374922,31.73,95,96,2.84
Mopipi,-21.2,24.86,BW,1572374923,89.85,9,64,10.04
Nekhayevskiy,50.41,41.76,RU,1572374984,42.01,91,41,6.29
Walcz,53.28,16.47,PL,1572374984,36.0,86,0,4.18
Kawalu,-7.38,108.21,ID,1572374984,65.93,94,97,2.35
Natal,-5.81,-35.21,BR,1572374984,84.2,62,40,21.92
Kenora,49.76,-94.48,CA,1572374947,26.6,68,68,21.92
Cloquet,46.72,-92.46,US,1572374985,35.01,47,40,11.41
Suez,29.97,32.54,EG,1572374985,72.36,56,0,9.71
Monte Patria,-30.69,-70.96,CL,1572374985,73.81,15,9,9.8
Kinablangan,7.69,126.55,PH,1572374985,71.33,91,100,5.08
Leninsk,48.69,45.2,RU,1572374986,48.2,93,75,6.71
Gayny,60.3,54.33,RU,1572374986,20.05,87,50,6.17
Noyon,49.58,3.0,FR,1572374986,50.0,76,94,13.87
Santo Anastacio,-21.84,-51.61,BR,1572374986,95.0,26,40,4.7
Takapau,-40.02,176.35,NZ,1572374987,46.99,88,0,3.11
Matamoros,25.87,-97.51,US,1572374987,89.6,59,20,14.99
Tera,34.97,32.42,CY,1572374987,69.8,77,40,5.82
Naryan-Mar,67.67,53.09,RU,1572374987,20.7,81,83,14.88
Mlonggo,-6.53,110.7,ID,1572374987,81.95,69,100,10.25
Athabasca,54.72,-113.29,CA,1572374988,18.57,62,0,6.64
Rypefjord,70.63,23.67,NO,1572374988,32.0,79,75,20.8
Palmares do Sul,-30.26,-50.51,BR,1572374988,77.41,75,98,8.57
Kentau,43.52,68.5,KZ,1572374989,57.06,28,53,11.36
Kalabo,-15.0,22.67,ZM,1572374989,89.28,22,31,1.45
Rakiv Lis,51.62,24.92,UA,1572374989,40.08,71,10,6.33
Gorontalo,0.54,123.06,ID,1572374989,72.0,82,97,2.24
Aden,12.79,45.03,YE,1572374802,81.77,48,99,3.42
Cerrik,41.03,19.98,AL,1572374990,57.2,93,0,3.36
Pringsewu,-5.36,104.98,ID,1572374990,70.61,97,95,3.87
Acari,-6.44,-36.64,BR,1572374990,90.75,22,14,20.49
Pasni,25.26,63.48,PK,1572374990,80.42,66,0,6.42
Astana,51.13,71.43,KZ,1572374990,46.4,58,100,8.95
Martapura,-3.41,114.85,ID,1572374991,75.2,88,57,1.12
Chunskiy,56.08,99.63,RU,1572374991,36.28,75,96,16.24
Male,50.74,33.7,UA,1572374991,44.13,57,100,7.7
Paredon,-18.93,-65.16,BO,1572374992,80.6,13,20,14.99
Mizdah,31.45,12.98,LY,1572374992,66.27,57,48,10.6
Linkoping,58.41,15.62,SE,1572374992,39.2,76,3,8.05
Bure,10.52,10.33,NG,1572374992,80.28,56,11,2.66
Ordu,40.98,37.88,TR,1572374992,60.8,100,75,3.36
Pokaran,26.93,71.92,IN,1572374993,83.16,46,100,6.64
Jiblah,13.92,44.15,YE,1572374993,65.71,79,79,0.89
Balurghat,25.22,88.78,IN,1572374993,72.03,85,17,4.63
Castrovillari,39.82,16.2,IT,1572374993,62.01,100,8,2.95
Nacala,-14.56,40.69,MZ,1572374993,73.63,85,0,6.6
Gazanjyk,39.24,55.52,TM,1572374994,59.34,30,0,4.45
Sagna,46.97,27.01,RO,1572374994,48.2,100,75,6.93
Susuman,62.78,148.15,RU,1572374994,15.4,97,100,5.1
Darab,28.75,54.55,IR,1572374994,72.41,34,35,2.51
Kaduy,59.2,37.15,RU,1572374995,26.6,92,75,8.95
Mahuva,21.09,71.76,IN,1572374995,82.11,76,93,6.55
Turbat,26.0,63.05,PK,1572374995,81.28,57,22,1.07
Wageningen,51.98,5.66,NL,1572374995,48.0,93,0,8.05
Moron,18.56,-74.26,HT,1572374995,82.8,71,5,4.92
Nata,-20.21,26.19,BW,1572374996,91.8,12,54,12.48
Nizhnedevitsk,51.55,38.36,RU,1572374996,39.2,80,68,4.47
Srostki,52.42,85.7,RU,1572374996,49.91,74,96,12.71
Liuhe,42.28,125.73,CN,1572374996,33.76,51,0,7.56
Sironj,24.1,77.69,IN,1572374996,72.03,84,99,4.99
Naifaru,5.44,73.37,MV,1572374997,76.12,91,100,14.65
Tandalti,13.01,31.87,SD,1572375058,91.06,21,39,10.18
Abu Dhabi,24.47,54.37,AE,1572374805,86.0,74,0,8.05
Mende,44.52,3.5,FR,1572375058,53.6,93,90,2.33
Lebanon,40.34,-76.42,US,1572375058,64.0,72,90,3.36
Sidi Ali,36.1,0.42,DZ,1572375059,67.39,66,0,3.69
Ouahigouya,13.58,-2.42,BF,1572375059,90.19,26,4,7.67
Maumere,-8.63,122.22,ID,1572375059,75.22,76,0,4.9
Proletariy,58.43,31.7,RU,1572375059,29.3,84,98,8.32
Turayf,31.68,38.65,SA,1572375060,64.4,52,0,4.7
Manhattan,39.18,-96.57,US,1572375052,37.0,74,90,3.36
Bayan,36.1,102.26,CN,1572375060,31.26,36,31,2.86
Yaring,6.87,101.37,TH,1572375060,82.96,74,53,9.78
King City,43.93,-79.54,CA,1572375060,63.0,82,75,11.41
Whitley Bay,55.04,-1.44,GB,1572375061,46.99,86,20,3.36
Storforshei,66.4,14.52,NO,1572375061,26.6,92,75,2.24
Wasilla,61.58,-149.44,US,1572375061,51.8,75,90,11.41
Kukushtan,57.65,56.5,RU,1572375061,21.2,85,75,4.47
Praya,-8.71,116.27,ID,1572375061,77.0,83,20,2.57
Derac,19.65,-71.82,HT,1572375062,86.0,62,40,14.99
Belz,50.38,24.01,UA,1572375062,41.0,86,98,4.47
Mutsu,41.29,141.2,JP,1572375062,55.4,82,75,3.36
Daru,-9.07,143.21,PG,1572375062,77.72,84,100,9.04
Mogadouro,41.34,-6.71,PT,1572375062,61.54,71,35,5.06
Banepa,27.63,85.52,NP,1572375063,59.0,87,20,2.24
Morki,56.43,49.0,RU,1572375063,28.18,64,57,1.63
Ulaangom,49.98,92.07,MN,1572375063,29.93,69,99,0.69
Masuguru,-11.38,38.46,MZ,1572375063,86.49,25,0,11.7
Camopi,3.17,-52.33,GF,1572375064,93.87,33,44,2.06
Charlestown,41.38,-71.64,US,1572375064,59.0,87,90,11.41
Shelbyville,39.41,-88.79,US,1572374930,45.0,80,90,9.17
Vestmanna,62.16,-7.17,FO,1572375064,44.6,75,99,11.41
San Pedro,-33.68,-59.66,AR,1572375065,75.99,47,65,7.0
Pamanukan,-6.28,107.82,ID,1572375065,76.05,79,72,3.49
Anlu,31.26,113.68,CN,1572375065,59.76,35,0,3.47
Dori,14.03,-0.03,BF,1572375065,93.85,24,2,4.05
Birin,26.89,88.07,NP,1572375066,66.2,88,40,3.27
Hamada,34.9,132.08,JP,1572375066,55.99,38,7,1.99
Mugur-Aksy,50.38,90.44,RU,1572375066,20.23,83,18,6.91
Morong,28.49,109.85,CN,1572375066,55.8,79,0,2.46
Cacapava do Sul,-30.51,-53.49,BR,1572375066,73.72,92,100,12.12
Mersing,2.43,103.84,MY,1572375067,82.36,72,13,5.03
Burnie,-41.05,145.91,AU,1572375067,50.0,82,50,4.0
Bridgetown,-33.96,116.14,AU,1572375067,48.99,90,69,1.99
Eregli,37.51,34.05,TR,1572375067,59.95,44,85,5.64
Gimli,50.63,-96.99,CA,1572374960,24.01,74,77,5.99
Naples,40.84,14.25,IT,1572374921,66.99,82,20,1.12
Synya,65.37,58.04,RU,1572375068,18.05,94,72,8.3
Bolkhov,53.44,36.0,RU,1572375068,38.62,89,72,9.82
Grafton,-29.69,152.93,AU,1572375068,59.0,87,53,1.52
Sudbury,46.49,-80.99,CA,1572375068,41.0,100,90,9.17
Porto Uniao,-26.24,-51.08,BR,1572375068,81.14,58,45,1.41
Novyy Urengoy,66.08,76.63,RU,1572375069,9.09,89,31,19.19
Tenenkou,14.46,-4.91,ML,1572375069,90.79,12,0,11.1
Wilmington,39.75,-75.55,US,1572374996,64.99,87,90,5.82
Albury,-36.08,146.92,AU,1572375070,54.0,81,70,1.12
Onguday,50.75,86.14,RU,1572375070,26.31,95,99,9.8
Lethem,3.38,-59.8,GY,1572375131,95.38,38,86,7.36
Lake Havasu City,34.47,-114.34,US,1572375131,66.0,12,1,2.73
Huangmei,30.1,115.95,CN,1572375131,60.13,51,0,4.21
Maracaju,-21.61,-55.17,BR,1572375131,101.82,23,15,10.45
Garh Maharaja,30.83,71.9,PK,1572375132,77.94,24,0,7.25
Bogalusa,30.79,-89.85,US,1572375132,68.0,82,90,6.93
Santa Marta,11.24,-74.21,CO,1572374940,87.8,79,75,11.41
Khunti,23.08,85.28,IN,1572375133,68.0,88,79,2.91
Abha,18.22,42.5,SA,1572375133,64.4,82,73,2.71
Grevena,40.09,21.43,GR,1572375133,59.0,47,1,3.36
Conway,35.09,-92.44,US,1572375134,62.01,93,90,9.17
Mumbwa,-14.99,27.06,ZM,1572375134,79.63,27,69,1.92
Krutinka,56.01,71.51,RU,1572375134,30.79,66,99,5.91
El Seibo,18.76,-69.04,DO,1572375134,87.8,79,40,9.17
Kandrian,-6.21,149.55,PG,1572375135,73.18,94,89,3.22
Zharkent,44.17,80.0,KZ,1572375135,53.06,33,0,6.2
Angarsk,52.53,103.88,RU,1572375135,53.6,37,20,6.71
Niquero,20.04,-77.58,CU,1572375135,85.96,66,10,5.48
Mamallapuram,12.63,80.17,IN,1572375135,77.0,94,90,11.41
Shimanovsk,52.0,127.67,RU,1572375136,21.31,90,18,2.82
Haverfordwest,51.8,-4.97,GB,1572375136,50.0,71,92,12.75
